[
  {
    "id": "pantry_16037.0",
    "name": "Argentine Church of the Nazarene",
    "lat": 42.7891885269,
    "lng": -83.8458979334,
    "type": "FoodPantry",
    "hours": "Next: TBA\n",
    "address": "16248 Seymour Rd, Linden, MI 48451",
    "phone": "810-735-7118",
    "notes": "DRIVE-THROUGH SERVICE ONLY",
    "ebt_accepted": 0,
    "dufb_offered": 0,
    "wic_accepted": 0
  },
  {
    "id": "pantry_16038.0",
    "name": "Blessed Sacrament",
    "lat": 43.0076189959,
    "lng": -83.5801429877,
    "type": "FoodPantry",
    "hours": "Third Wednesday of Each Month , 2:00 pm to 3:00 pm",
    "address": "6340 Roberta Street, Burton, MI 48509",
    "phone": "810-742-3151",
    "notes": "1. SERVES ZIP CODES 48509 AND 48519 ONLY, 2. DRIVE-THROUGH SERVICE ONLY",
    "ebt_accepted": 0,
    "dufb_offered": 0,
    "wic_accepted": 0
  },
  {
    "id": "pantry_16039.0",
    "name": "CenterPoint Church",
    "lat": 43.0124250115,
    "lng": -83.6322609911,
    "type": "FoodPantry",
    "hours": "Call Love, Inc. at 810-235-4990 for a referral",
    "address": "1225 S. Center Rd, Burton, MI 48509",
    "phone": "810-743-0000",
    "notes": "Call Love, Inc. at 810-235-4990 for a referral",
    "ebt_accepted": 0,
    "dufb_offered": 0,
    "wic_accepted": 0
  },
  {
    "id": "pantry_16040.0",
    "name": "Holy Reseemer Outreach",
    "lat": 42.9742513937,
    "lng": -83.6845119315,
    "type": "FoodPantry",
    "hours": "Tuesday 10:00 am to 12:00 pm \nWednesday 1:00 pm to 3:00 pm\nThursday 10:00am to 12:00 pm &\n6:00 pm to 8:00 pm",
    "address": "1227 E. Bristol Road, Burton, MI 48529",
    "phone": "810-743-8530",
    "notes": "1. SERVES ZIP CODES 48507 AND 48529 ONLY 2. DRIVE-THROUGH SERVICE ONLY",
    "ebt_accepted": 0,
    "dufb_offered": 0,
    "wic_accepted": 0
  },
  {
    "id": "pantry_16041.0",
    "name": "The Prayer Shark",
    "lat": 43.011074645,
    "lng": -83.5894526837,
    "type": "FoodPantry",
    "hours": "Friday 8:00 am to 12:00 pm CLOSED",
    "address": "6150 Lapeer Road, Burton, MI 48509",
    "phone": "810-513-8197",
    "notes": "https://www.facebook.com/ThePrayerShack/",
    "ebt_accepted": 0,
    "dufb_offered": 0,
    "wic_accepted": 0
  },
  {
    "id": "pantry_16042.0",
    "name": "Bethany United Methodist Church",
    "lat": 43.1775113303,
    "lng": -83.7276831752,
    "type": "FoodPantry",
    "hours": "Call Love, Inc. at 810-235-4990 for a referral",
    "address": "353 Vienna Street, Clio, MI 48420",
    "phone": "810-686-5151",
    "notes": "Call Love, Inc. at 810-235-4990 for a referral",
    "ebt_accepted": 0,
    "dufb_offered": 0,
    "wic_accepted": 0
  },
  {
    "id": "pantry_16043.0",
    "name": "St. Charles and Helena Catholic Church",
    "lat": 43.177442473,
    "lng": -83.7289749103,
    "type": "FoodPantry",
    "hours": "Wednesday 1:30 pm to 3:00 pm\nCLOSED January 5th",
    "address": "230 E. Vienna Street, Clio, MI 48420 Parish Hall",
    "phone": "810-686-9861",
    "notes": "Call Love, Inc. at 810-235-4990 for a referral",
    "ebt_accepted": 0,
    "dufb_offered": 0,
    "wic_accepted": 0
  },
  {
    "id": "pantry_16044.0",
    "name": "Davison United Methodist Church",
    "lat": 43.032933475,
    "lng": -83.51625411,
    "type": "FoodPantry",
    "hours": "Call Love, Inc. at 810-235-4990 for a referral",
    "address": "207 E. Third Street, Davison, MI 48423",
    "phone": "810-653-5272",
    "notes": "1. SERVES ZIP CODE 48423 ONLY \n2. Call Love, Inc. at 810-235-4990 for a referral",
    "ebt_accepted": 0,
    "dufb_offered": 0,
    "wic_accepted": 0
  },
  {
    "id": "pantry_16045.0",
    "name": "Journey Ministries",
    "lat": 43.0297983498,
    "lng": -83.5167120134,
    "type": "FoodPantry",
    "hours": "Second & Fourth Monday of Every Month\n4:00 pm to 7:00 pm",
    "address": "102 S. Main Street, Davison, MI 48423",
    "phone": null,
    "notes": "https://www.facebook.com/groups/journeyministries/",
    "ebt_accepted": 0,
    "dufb_offered": 0,
    "wic_accepted": 0
  },
  {
    "id": "pantry_16046.0",
    "name": "Outreach East",
    "lat": 43.1722376883,
    "lng": -83.5200120525,
    "type": "FoodPantry",
    "hours": "Monday & Wednesday \n10:00 am to 3:00 pm \nTuesday & Thursday\n12:00 pm to 5:00 pm",
    "address": "425 N. Genesee Street, Davison, MI 48423 and 212 Center Street, Otisville, MI 48463",
    "phone": "810-653-7711",
    "notes": "1. MUST REGISTER FIRST at the Davison location or online at https://www.outreacheast.org \n2. See application page for materials needed to register (e.g. ID)\n3. See https://www.facebook.com/OutreachEast for updates",
    "ebt_accepted": 0,
    "dufb_offered": 0,
    "wic_accepted": 0
  },
  {
    "id": "pantry_16047.0",
    "name": "St. John Christian Service",
    "lat": 43.0330728711,
    "lng": -83.5193494038,
    "type": "FoodPantry",
    "hours": "Tuesday 3:00 pm to 5:00 pm\nFriday 9:00 am to 11:00 am",
    "address": "425 N. Genesee, Davison, MI 48423",
    "phone": "810-653-2377",
    "notes": "1. No appointment needed\n2. Emergency number: 810-931-8663",
    "ebt_accepted": 0,
    "dufb_offered": 0,
    "wic_accepted": 0
  },
  {
    "id": "pantry_16048.0",
    "name": "St. Mary Catholic Church",
    "lat": 42.9154927383,
    "lng": -83.9773517086,
    "type": "FoodPantry",
    "hours": "One Saturday per Month\nNext: TBA",
    "address": "700 Columbia Drive, Durand, MI 48429 (Parking Lot)",
    "phone": null,
    "notes": "1. MUST MAKE AN APPOINTMENT the week before the distribution. Call 855-288-6704 ext. 7017\n2. MUST LIVE in the following areas: Bancroft, Byron, Corunna, Durand, Gaines, Lennon or Vernon.\n3. MUST BRING either a gov?\ufffd\ufffdt-issued ID or\nmail with your address\n",
    "ebt_accepted": 0,
    "dufb_offered": 0,
    "wic_accepted": 0
  },
  {
    "id": "pantry_16049.0",
    "name": "Fenton Center of Hope",
    "lat": 42.7870499682,
    "lng": -83.726206703,
    "type": "FoodPantry",
    "hours": "Wednesday\n5:00 pm to 7:00 pm\nThursday\n9:00 am to 12:00 pm",
    "address": "2525 W. Shiawassee Avenue, Fenton, MI 48430\n",
    "phone": "810-620-8300",
    "notes": "CALL 810-620-8167 TO SCHEDULE AN APPOINTMENT and fill out an application",
    "ebt_accepted": 0,
    "dufb_offered": 0,
    "wic_accepted": 0
  },
  {
    "id": "pantry_16050.0",
    "name": "Fenton United Methodist Church",
    "lat": 42.7956780059,
    "lng": -83.7047524674,
    "type": "FoodPantry",
    "hours": "Call Love, Inc. at 810-235-4990 for a referral",
    "address": "119 S. Leroy Street, Fenton, MI 48430",
    "phone": "810-629-2132",
    "notes": "Call Love, Inc. at 810-235-4990 for a referral",
    "ebt_accepted": 0,
    "dufb_offered": 0,
    "wic_accepted": 0
  },
  {
    "id": "pantry_16051.0",
    "name": "St. Vincent de Paul Society Food Pantry (at St. John The Evangelist Catholic Church)",
    "lat": 42.8023880966,
    "lng": -83.7101650814,
    "type": "FoodPantry",
    "hours": "Call Love, Inc. at 810-235-4990 for a referral",
    "address": "600 N. Adelaide Street, Fenton, MI 48430",
    "phone": "810-750-0469",
    "notes": "Call Love, Inc. at 810-235-4990 for a referral or fill out application at https://www.stjohnfenton.org/st-john-outreach.html",
    "ebt_accepted": 0,
    "dufb_offered": 0,
    "wic_accepted": 0
  },
  {
    "id": "pantry_16052.0",
    "name": "American Muslim Community Services",
    "lat": 42.982092827,
    "lng": -83.6745250416,
    "type": "FoodPantry",
    "hours": "Second Saturday of Each Month\n10:15 am to 11:30 pm \n(while supplies last)",
    "address": "4800 S. Saginaw Street, Flint, MI 48507",
    "phone": null,
    "notes": "1. From Hemphill Road, come in from the rear of the IINN building. Held in the parking lot. \n2.  See https://www.facebook.com/FlintMuslimFoodPantry/?hc_ref=ARSPE9RtWluNLm_t2wMwt1e0iSICl11SbgF9ipEZs9YArrFqnYNoVTtuvnyDzcut9j4&fref=nf&__tn__=kCH-R for updat",
    "ebt_accepted": 0,
    "dufb_offered": 0,
    "wic_accepted": 0
  },
  {
    "id": "pantry_16053.0",
    "name": "Asbury United Methodist Church",
    "lat": 43.0329833612,
    "lng": -83.6584659994,
    "type": "FoodPantry",
    "hours": "Tuesday 10:00 am to 12:30 pm or until food and water are gone",
    "address": "653 Davison Road, Flint, MI 48506",
    "phone": null,
    "notes": "1. DRIVE-THROUGH SERVICE ONLY\n2. See https://www.facebook.com/FlintAsbury/ for updates",
    "ebt_accepted": 0,
    "dufb_offered": 0,
    "wic_accepted": 0
  },
  {
    "id": "pantry_16054.0",
    "name": "Bethel United Methodist Church",
    "lat": 43.0272823959,
    "lng": -83.730245523,
    "type": "FoodPantry",
    "hours": "Monday 10:00 am to 1:00 pm or until food and water are gone",
    "address": "1309 N. Ballenger Hwy, Flint, MI 48504-7519",
    "phone": "810-238-3843",
    "notes": "DRIVE-THROUGH SERVICE ONLY",
    "ebt_accepted": 0,
    "dufb_offered": 0,
    "wic_accepted": 0
  },
  {
    "id": "pantry_16055.0",
    "name": "Calvary Church",
    "lat": 43.020525157,
    "lng": -83.7177062797,
    "type": "FoodPantry",
    "hours": "Wednesday 10:00 to 2:00 pm",
    "address": "2111 Flushing Road, Flint, MI 48504",
    "phone": "810-238-7685",
    "notes": "BY APPOINTMENT ONLY",
    "ebt_accepted": 0,
    "dufb_offered": 0,
    "wic_accepted": 0
  },
  {
    "id": "pantry_16056.0",
    "name": "Carriage Town Ministries",
    "lat": 43.0209501195,
    "lng": -83.6965234502,
    "type": "FoodPantry",
    "hours": "Hot Meals\nSunday through Saturday\n4:50 pm",
    "address": "605 Garland Street, Flint, MI 48503",
    "phone": "810-233-8787",
    "notes": "Meal served 'to-go'\" and outside for non-residents\"",
    "ebt_accepted": 0,
    "dufb_offered": 0,
    "wic_accepted": 0
  },
  {
    "id": "pantry_16058.0",
    "name": "Christ the King Catholic Church",
    "lat": 43.0083174598,
    "lng": -83.6619647796,
    "type": "FoodPantry",
    "hours": "Wednesday\n12:00 pm to 2:00 pm",
    "address": "1832 Seymour Avenue, Flint, MI 48503",
    "phone": "810-233-0402",
    "notes": "1. Located across the street from the Church. Look for the white carport.\n2. Must have a referral indicating financial need from a local organization or business.",
    "ebt_accepted": 0,
    "dufb_offered": 0,
    "wic_accepted": 0
  },
  {
    "id": "pantry_16059.0",
    "name": "Crossover Outreach",
    "lat": 43.0105099143,
    "lng": -83.6924527789,
    "type": "FoodPantry",
    "hours": "Tuesday through Friday \n10:00 am to 2:30 pm",
    "address": "414 W. Court Street, Flint, MI 48503",
    "phone": "810-234-2479",
    "notes": "1. RING THE DOORBELL FOR SERVICE\n2. Mask and temperature check required \n3. One visit every 30 days. Referral and proof that children live in the home required. \n4. See https://www.facebook.com/crossoveroutreachflint/ for updates",
    "ebt_accepted": 0,
    "dufb_offered": 0,
    "wic_accepted": 0
  },
  {
    "id": "pantry_16060.0",
    "name": "Eastside Community Church",
    "lat": 43.0508684009,
    "lng": -83.6467568221,
    "type": "FoodPantry",
    "hours": "First Saturday of Each Month\n1:00 pm",
    "address": "3230 Richfield Road, Flint, MI 48506",
    "phone": "810-407-6267",
    "notes": "See https://www.facebook.com/eastsideflint/ for updates",
    "ebt_accepted": 0,
    "dufb_offered": 0,
    "wic_accepted": 0
  },
  {
    "id": "pantry_16061.0",
    "name": "End Time Outreach Ministries/Storage of America",
    "lat": 42.9910579896,
    "lng": -83.6931074894,
    "type": "FoodPantry",
    "hours": "Friday 10:00 am",
    "address": "South Flint Soup Kitchen 3410 Fenton Road, Flint, MI 48507",
    "phone": "810-239-3427",
    "notes": "See https://www.facebook.com/ETOM2020/ for updates",
    "ebt_accepted": 0,
    "dufb_offered": 0,
    "wic_accepted": 0
  },
  {
    "id": "pantry_16062.0",
    "name": "Flint Eastside Mission",
    "lat": 43.0397754549,
    "lng": -83.6645003891,
    "type": "FoodPantry",
    "hours": "CLOSED \nCoffee, Bagels and Donuts \nMonday through Thursday at 9:30 am\nHot Lunch\nMonday through Thursday\n11:15 am to 12:30 pm",
    "address": "1917 Delaware, Flint, MI  48506",
    "phone": "810-767-5312",
    "notes": "1. ID and one piece of mail with 48506 ZIP code required                                                                                             2. One food box per month\n3. See https://www.facebook.com/flinteastsidemission/ for updates",
    "ebt_accepted": 0,
    "dufb_offered": 0,
    "wic_accepted": 0
  },
  {
    "id": "pantry_16063.0",
    "name": "Flint First Wesleyan",
    "lat": 43.0332024922,
    "lng": -83.637449473,
    "type": "FoodPantry",
    "hours": "Second Saturday of Each Month 10:00 am to 11:30 am",
    "address": "3825 Davison Rd. Flint, MI 48506",
    "phone": "810-742-8450",
    "notes": "Please bring your ID",
    "ebt_accepted": 0,
    "dufb_offered": 0,
    "wic_accepted": 0
  },
  {
    "id": "pantry_16064.0",
    "name": "Franklin Avenue Mission (part of the Flint Mission Network)",
    "lat": 43.0361620165,
    "lng": -83.6651924828,
    "type": "FoodPantry",
    "hours": "Dinner\nTuesday and Thursday\n4:45 pm",
    "address": "2210 N. Franklin Avenue, Flint, MI 48506",
    "phone": "810-285-9598",
    "notes": "1. Limited indoor seating in cafeteria\n2. See https://franklinavemission.com/about-franklin-avenue for updates",
    "ebt_accepted": 0,
    "dufb_offered": 0,
    "wic_accepted": 0
  },
  {
    "id": "pantry_16065.0",
    "name": "Freedom Temple Church of God in Christ",
    "lat": 43.0462925104,
    "lng": -83.7146870344,
    "type": "FoodPantry",
    "hours": "Thursday\n10:00 am until the food is gone",
    "address": "723 W. Pasadena Avenue, Flint, MI 48504",
    "phone": null,
    "notes": null,
    "ebt_accepted": 0,
    "dufb_offered": 0,
    "wic_accepted": 0
  },
  {
    "id": "pantry_16066.0",
    "name": "Grace Emmanuel Baptist Church",
    "lat": 43.0098738535,
    "lng": -83.6435773147,
    "type": "FoodPantry",
    "hours": "Next Distribution: TBA",
    "address": "3502 Lapeer Road, Flint, MI 48503",
    "phone": null,
    "notes": "1. DRIVE-THROUGH SERVICE ONLY. Please stay in your car \n2. Masks and social distancing required",
    "ebt_accepted": 0,
    "dufb_offered": 0,
    "wic_accepted": 0
  },
  {
    "id": "pantry_16067.0",
    "name": "Greater Holy Temple Church of God in Christ",
    "lat": 43.0739061036,
    "lng": -83.6741480435,
    "type": "FoodPantry",
    "hours": "Thursday 10:00 am to 2:00 pm",
    "address": "6702 N. Dort Highway, Flint, MI 48505",
    "phone": null,
    "notes": "DRIVE-THROUGH SERVICE ONLY",
    "ebt_accepted": 0,
    "dufb_offered": 0,
    "wic_accepted": 0
  },
  {
    "id": "pantry_16068.0",
    "name": "Greater Flint Outreach Center",
    "lat": 43.0162541582,
    "lng": -83.7062171212,
    "type": "FoodPantry",
    "hours": "Wednesday 11:00 am to 12:30 pm",
    "address": "1114 University Avenue, Flint, Michigan 48504",
    "phone": "810-767-4064",
    "notes": "1. DRIVE-THROUGH SERVICE ONLY \n2. Proper identification is required\n3. May pick up for other persons but must have a copy of those persons'' IDs",
    "ebt_accepted": 0,
    "dufb_offered": 0,
    "wic_accepted": 0
  },
  {
    "id": "pantry_16069.0",
    "name": "Hand of God Ministries",
    "lat": 42.9936359278,
    "lng": -83.7300175353,
    "type": "FoodPantry",
    "hours": "Next Distribution: TBA",
    "address": "3408 Miller Road, Flint, MI 48503",
    "phone": "810-766-9278",
    "notes": "See https://www.facebook.com/HOGMFlint for updates",
    "ebt_accepted": 0,
    "dufb_offered": 0,
    "wic_accepted": 0
  },
  {
    "id": "pantry_16070.0",
    "name": "Martus Luna Food Pantry",
    "lat": 43.034832018,
    "lng": -83.6751174944,
    "type": "FoodPantry",
    "hours": "Wednesday 10:00 am",
    "address": "2101 Lewis Street Suite B, Flint, MI 48506",
    "phone": null,
    "notes": "1. Giveaway occurs at the back of the building \n2. Check https://www.facebook.com/Martus-Luna-Food-Pantry-1468502823282464/ for updates",
    "ebt_accepted": 0,
    "dufb_offered": 0,
    "wic_accepted": 0
  },
  {
    "id": "pantry_16071.0",
    "name": "Metropolitan Baptist Tabernacle",
    "lat": 43.0515606203,
    "lng": -83.6879459134,
    "type": "FoodPantry",
    "hours": "Tuesday 10:00 am to 1:30 pm",
    "address": "930 E. Myrtle Avenue, Flint, MI 48505",
    "phone": "810-787-9731",
    "notes": "CLOSED UNTIL FURTHER NOTICE",
    "ebt_accepted": 0,
    "dufb_offered": 0,
    "wic_accepted": 0
  },
  {
    "id": "pantry_16072.0",
    "name": "Mott Eats Food Pantry",
    "lat": 43.0182669046,
    "lng": -83.6698617058,
    "type": "FoodPantry",
    "hours": "Monday Through Friday \n9:00 am to 3:00 pm",
    "address": "Lenore Croudy Family Life Center \n1509 E. Court Street, Flint, MI 48503",
    "phone": null,
    "notes": "1. SERVES CURRENT MOTT STUDENTS, FACULTY AND STAFF ONLY \n2. CURBSIDE SERVICE ONLY -  Call 810-232-2071 upon arrival and stay in your car \n3. One visit per week",
    "ebt_accepted": 0,
    "dufb_offered": 0,
    "wic_accepted": 0
  },
  {
    "id": "pantry_16073.0",
    "name": "My Brother's Keeper of Genesee County",
    "lat": 43.0150822005,
    "lng": -83.6963278166,
    "type": "FoodPantry",
    "hours": "Sack Lunches \nFor more information please call \n810-785-6911",
    "address": "101 N. Grand Traverse Street, Flint, MI 48503",
    "phone": null,
    "notes": "For more information please call                                                           810-785-6911",
    "ebt_accepted": 0,
    "dufb_offered": 0,
    "wic_accepted": 0
  },
  {
    "id": "pantry_16075.0",
    "name": "Our Savior Lutheran Church's Resource Center",
    "lat": 43.0741601172,
    "lng": -83.6941012478,
    "type": "FoodPantry",
    "hours": "Thursday 10:00 am to 1:00 pm",
    "address": "6901 N Saginaw Street, Flint, MI 48505",
    "phone": "810-789-1361",
    "notes": null,
    "ebt_accepted": 0,
    "dufb_offered": 0,
    "wic_accepted": 0
  },
  {
    "id": "pantry_16076.0",
    "name": "Riverside Tabernacle's The Storehouse",
    "lat": 43.0192910056,
    "lng": -83.6842716223,
    "type": "FoodPantry",
    "hours": "Tuesday 9:00 am to 12:00 pm",
    "address": "429 N.B. Chavez Drive, Flint, MI 48503",
    "phone": "810-234-6246",
    "notes": "DRIVE-THROUGH SERVICE ONLY",
    "ebt_accepted": 0,
    "dufb_offered": 0,
    "wic_accepted": 0
  },
  {
    "id": "pantry_16077.0",
    "name": "St. Francis Prayer Center Outreach Pantry",
    "lat": 43.0762248314,
    "lng": -83.6614572553,
    "type": "FoodPantry",
    "hours": "Tuesday and Wednesday \n12:30 pm to 3:30 pm",
    "address": "G-2381 E. Carpenter Road, Flint, MI 48505",
    "phone": "810-787-5330",
    "notes": "1. DRIVE-THROUGH SERVICE ONLY \n2. SERVES ONLY ZIP CODES 48505, 48506 and 48458",
    "ebt_accepted": 0,
    "dufb_offered": 0,
    "wic_accepted": 0
  },
  {
    "id": "pantry_16078.0",
    "name": "St. Luke N.E.W. Life Center",
    "lat": 43.0448868233,
    "lng": -83.7194767053,
    "type": "FoodPantry",
    "hours": "Friday 10:00 am",
    "address": "3115 Lawndale Avenue, Flint, MI 48504",
    "phone": "810-239-8710",
    "notes": "1. SERVES ALL OF GENESEE COUNTY\n2. CURBSIDE SERVICE ONLY until further notice. \n3. Face covering and social distancing required\n4. See  https://www.facebook.com/StLukeNewLifeCenter for updates",
    "ebt_accepted": 0,
    "dufb_offered": 0,
    "wic_accepted": 0
  },
  {
    "id": "pantry_16079.0",
    "name": "St. Mark Missionary Baptist Church",
    "lat": 43.043745,
    "lng": -83.72044,
    "type": "FoodPantry",
    "hours": "Second & Fourth Wednesday \nof Every Month\n9:00 am",
    "address": "St. Mark Outreach Community Center 3020 Dupont Flint, MI 48504",
    "phone": "810-265-9014",
    "notes": null,
    "ebt_accepted": 0,
    "dufb_offered": 0,
    "wic_accepted": 0
  },
  {
    "id": "pantry_16080.0",
    "name": "St. Mary Catholic Church",
    "lat": 43.0394869498,
    "lng": -83.6651846877,
    "type": "FoodPantry",
    "hours": "Every Other Wednesday \n11:00 am to 1:00 pm\nNext: January 5th",
    "address": "2500 N. Franklin Avenue, Flint, MI 48506",
    "phone": "810-232-4012",
    "notes": null,
    "ebt_accepted": 0,
    "dufb_offered": 0,
    "wic_accepted": 0
  },
  {
    "id": "pantry_16081.0",
    "name": "St. Paul's Episcopal Church",
    "lat": 43.0136519126,
    "lng": -83.6887497379,
    "type": "FoodPantry",
    "hours": "uesday Lunch Ministry\n12:00 pm",
    "address": "Barth Hall 711 S. Saginaw Street, Flint, MI 48502",
    "phone": null,
    "notes": null,
    "ebt_accepted": 0,
    "dufb_offered": 0,
    "wic_accepted": 0
  },
  {
    "id": "pantry_16082.0",
    "name": "South Flint Soup Kitchen",
    "lat": 42.9910579896,
    "lng": -83.6931074894,
    "type": "FoodPantry",
    "hours": "January Food Giveaway Dates:\nJanuary 5th & 12th.    Hot Meal\nMonday through Saturday\n11:00 am to 12:00 pm\n",
    "address": "3410 Fenton Road, Flint, MI 48507",
    "phone": "810-239-3427",
    "notes": "1. Mask and Temperatute Check Required for Entry\n2. See https://www.facebook.com/southflintsoupkitchen for updates",
    "ebt_accepted": 0,
    "dufb_offered": 0,
    "wic_accepted": 0
  },
  {
    "id": "pantry_16083.0",
    "name": "Sylvester Broome Empowerment Village",
    "lat": 42.9862717553,
    "lng": -83.6753754617,
    "type": "FoodPantry",
    "hours": "Village Market\nThursday 3:00 pm\nCLOSED until Janury 13th",
    "address": "4119 S. Saginaw Street, Flint, MI 48505",
    "phone": "810-893-6098",
    "notes": "See https://www.facebook.com/SBEVFlint/ for updates",
    "ebt_accepted": 0,
    "dufb_offered": 0,
    "wic_accepted": 0
  },
  {
    "id": "pantry_16084.0",
    "name": "Well of Hope",
    "lat": 43.0513200597,
    "lng": -83.6938098928,
    "type": "FoodPantry",
    "hours": "Open 24 hours a day, 7 days a week",
    "address": "Locations in Flint: \n1. Monteith and Dougherty (Mott Park)\n2. Alma and MLK Boulevard\n3. Saginaw St. & Myrtle Ave",
    "phone": null,
    "notes": "1. Self-serve, public access pantry. Please use care when selecting food. \n2. See https://www.facebook.com/wellofhopeflint for updates",
    "ebt_accepted": 0,
    "dufb_offered": 0,
    "wic_accepted": 0
  },
  {
    "id": "pantry_16085.0",
    "name": "West Court Street Church of God",
    "lat": 43.0069475216,
    "lng": -83.7277440278,
    "type": "FoodPantry",
    "hours": "Call Love, Inc. at 810-235-4990 for a referral",
    "address": "2920 W. Court Street, Flint, MI 48503",
    "phone": "810-238-2631",
    "notes": "1. Call Love, Inc. at 810-235-4990\n2. DRIVE UP AND BOXES WILL BE PLACED IN YOUR VEHICLE",
    "ebt_accepted": 0,
    "dufb_offered": 0,
    "wic_accepted": 0
  },
  {
    "id": "pantry_16086.0",
    "name": "Flint Driven Church",
    "lat": 42.9583066669,
    "lng": -83.8222855254,
    "type": "FoodPantry",
    "hours": "Next Distribution: TBA",
    "address": "7365 Miller Road, Swartz Creek, MI 48473",
    "phone": null,
    "notes": "See https://www.facebook.com/Flintdrivenchurch/ for updates",
    "ebt_accepted": 0,
    "dufb_offered": 0,
    "wic_accepted": 0
  },
  {
    "id": "pantry_16087.0",
    "name": "First Flint Seventh-day Adventist Church",
    "lat": 43.0261687318,
    "lng": -83.7579688935,
    "type": "FoodPantry",
    "hours": "Second & Fourth Wednesday\nof Each Month\n12:00 pm to 2:00 pm",
    "address": "G4285 Beecher Road, Flint, MI 48532",
    "phone": "810-732-0655",
    "notes": "1. CALL FOR PICK-UP SERVICE 2. VEGETARIAN ONLY",
    "ebt_accepted": 0,
    "dufb_offered": 0,
    "wic_accepted": 0
  },
  {
    "id": "pantry_16088.0",
    "name": "Helping Individuals Succeed",
    "lat": 42.9738979707,
    "lng": -83.7046995776,
    "type": "FoodPantry",
    "hours": "Tuesday 11:00 am to 1:00 pm",
    "address": "1315 W. Bristol Road, Flint, MI 48507",
    "phone": "810-238-4627",
    "notes": "1. CURRENTLY SERVICING ALL ZIP CODES \n2. DRIVE-THROUGH SERVICE ONLY",
    "ebt_accepted": 0,
    "dufb_offered": 0,
    "wic_accepted": 0
  },
  {
    "id": "pantry_16089.0",
    "name": "Jewish Community Services",
    "lat": 43.017755,
    "lng": -83.778882,
    "type": "FoodPantry",
    "hours": "Congregate Meal - Kosher\nMonday, Tuesday & Thursday\n12:00 pm\nMeals Temporarily Suspended",
    "address": "Temple Beth El 5150 Calkins Road, Flint, MI 48532",
    "phone": "810-767-5922",
    "notes": "1. SERVES GENESEE COUNTY RESIDENTS ONLY\n2. Call 810-767-5922 for reservations\n3. FREE for seniors over age 55",
    "ebt_accepted": 0,
    "dufb_offered": 0,
    "wic_accepted": 0
  },
  {
    "id": "pantry_16090.0",
    "name": "More Life Tabernacle",
    "lat": 42.9898820086,
    "lng": -83.8093889616,
    "type": "FoodPantry",
    "hours": "Next Distribution: April 2022",
    "address": "6430 Lennon Road, Swartz Creek, MI 48473",
    "phone": "810-635-3248",
    "notes": "See https://www.facebook.com/morelifetab for updates",
    "ebt_accepted": 0,
    "dufb_offered": 0,
    "wic_accepted": 0
  },
  {
    "id": "pantry_16091.0",
    "name": "New Creation Church of God",
    "lat": 42.987516426,
    "lng": -83.7505011464,
    "type": "FoodPantry",
    "hours": "Third Thursday of Each Month \n 9:00 am to 1:00 pm\nNext: January 20th",
    "address": "G-3472 Lennon Road, Flint, MI 48507",
    "phone": "810-732-0500",
    "notes": null,
    "ebt_accepted": 0,
    "dufb_offered": 0,
    "wic_accepted": 0
  },
  {
    "id": "pantry_16092.0",
    "name": "Flushing Christian Outreach Center",
    "lat": 43.0603339339,
    "lng": -83.7882759635,
    "type": "FoodPantry",
    "hours": "Monday to Wednesday \n10:00 am to 2:00 pm\nThursday 12:30 pm to 4:30 pm\nFriday 10:00 am to 2:00 pm",
    "address": "5409 W. Pierson Road, Flushing, MI 48433",
    "phone": "810-487-2223",
    "notes": "1. SERVES FLUSHING RESIDENTS ONLY \n2. CURBSIDE SERVICE ONLY until further notice\n3. See https://www.facebook.com/FCOCtr/ for updates",
    "ebt_accepted": 0,
    "dufb_offered": 0,
    "wic_accepted": 0
  },
  {
    "id": "pantry_16093.0",
    "name": "New Life Church",
    "lat": 43.0784055931,
    "lng": -83.8423679787,
    "type": "FoodPantry",
    "hours": "Third Monday of Each Month\n5:00 pm to 6:30 pm\nNext: January 24th (Fourth Monday)",
    "address": "8240 Carpenter Road, Flushing, MI 48433",
    "phone": "\n810-659-7830",
    "notes": "See https://www.facebook.com/flushingnewlife/ for updates",
    "ebt_accepted": 0,
    "dufb_offered": 0,
    "wic_accepted": 0
  },
  {
    "id": "pantry_16094.0",
    "name": "St. Joseph Food Pantry",
    "lat": 42.8687355851,
    "lng": -83.913963836,
    "type": "FoodPantry",
    "hours": "First & Third Wednesday of Each Month\nStarts by 9:15 am",
    "address": "Church Hall 12145 Ray Road, Gaines, MI 48436",
    "phone": "989-271-8434",
    "notes": "1. SERVES ONLY THE LOCAL COMMUNITY\n2. BY APPOINTMENT ONLY - Call 989-271-8434",
    "ebt_accepted": 0,
    "dufb_offered": 0,
    "wic_accepted": 0
  },
  {
    "id": "pantry_16095.0",
    "name": "Emmanuel Baptist Church",
    "lat": 43.0597882546,
    "lng": -83.5808805114,
    "type": "FoodPantry",
    "hours": "Thursday 12:00 pm to 2:00 pm\nCLOSED January 6th",
    "address": "6434 Richfield Road, Flint, MI 48506",
    "phone": "810-736-6111",
    "notes": null,
    "ebt_accepted": 0,
    "dufb_offered": 0,
    "wic_accepted": 0
  },
  {
    "id": "pantry_16096.0",
    "name": "Fountain of Grace Assembly of God",
    "lat": 43.1199339,
    "lng": -83.6626281234,
    "type": "FoodPantry",
    "hours": "Grace Day once per month\n12:30 pm to 1:30 pm\nNext: March 20th",
    "address": "2382 E. Mt. Morris Rd, Mt. Morris, MI 48458",
    "phone": "810-686-0509",
    "notes": "1. SERVES ZIP CODES 48458 AND 48420 ONLY \n2. Proper identification is required \n3. MUST REGISTER for Grace Day",
    "ebt_accepted": 0,
    "dufb_offered": 0,
    "wic_accepted": 0
  },
  {
    "id": "pantry_16097.0",
    "name": "Genesee United Methodist Church",
    "lat": 43.1112210374,
    "lng": -83.6174957657,
    "type": "FoodPantry",
    "hours": "Second & Fourth Thursday of Each Month \n9:00 am to 12:00 pm",
    "address": "7190 N. Genesee Road, Genesee, MI 48437",
    "phone": "810-814-8993",
    "notes": "DRIVE-THROUGH SERVICE ONLY",
    "ebt_accepted": 0,
    "dufb_offered": 0,
    "wic_accepted": 0
  },
  {
    "id": "pantry_16098.0",
    "name": "Holy Rosary Catholic Church",
    "lat": 43.0521663805,
    "lng": -83.6082677932,
    "type": "FoodPantry",
    "hours": "Fourth Thursday of Each Month\n10:00 am to 2:00 pm",
    "address": "5199 Richfield Road, Flint, MI 48506",
    "phone": "810-736-4040",
    "notes": "SERVES ZIP CODES 48423, 48439, 48505, 48506 AND 48509 AND ALL CHURCH PARISHIONERS ONLY",
    "ebt_accepted": 0,
    "dufb_offered": 0,
    "wic_accepted": 0
  },
  {
    "id": "pantry_16099.0",
    "name": "St. Francis Prayer Center Outreach Pantry",
    "lat": 43.0762248314,
    "lng": -83.6614572553,
    "type": "FoodPantry",
    "hours": "Tuesday and Wednesday \n12:30 pm to 3:30 pm",
    "address": "G-2381 E. Carpenter Road, Flint, MI 48505",
    "phone": "810-787-5330",
    "notes": "1. DRIVE-THROUGH SERVICE ONLY \n2. SERVES ONLY ZIP CODES 48505, 48506 and 48458",
    "ebt_accepted": 0,
    "dufb_offered": 0,
    "wic_accepted": 0
  },
  {
    "id": "pantry_16100.0",
    "name": "Victory World Missions at Mosaic Church",
    "lat": 43.1327100159,
    "lng": -83.6816889065,
    "type": "FoodPantry",
    "hours": "Wednesday 2:00 pm to 4:00 pm",
    "address": "8499 Dort Highway, Mt. Morris, MI 48458 (across from Skateland)",
    "phone": null,
    "notes": "See https://www.facebook.com/groups/FREEFOODNStuff/ for weekly updates",
    "ebt_accepted": 0,
    "dufb_offered": 0,
    "wic_accepted": 0
  },
  {
    "id": "pantry_16101.0",
    "name": "The Table Food Pantry at Lakeview Community Church",
    "lat": 42.8889783951,
    "lng": -83.4819396881,
    "type": "FoodPantry",
    "hours": "Sunday\n2:00 pm to 4:00 pm",
    "address": "10023 S. State Road, Goodrich, MI 48438",
    "phone": null,
    "notes": "1. One visit per month\n2. See Lakeview Community Church - Posts | Facebook for updates",
    "ebt_accepted": 0,
    "dufb_offered": 0,
    "wic_accepted": 0
  },
  {
    "id": "pantry_16102.0",
    "name": "FISH of Grand Blanc",
    "lat": 42.9257132173,
    "lng": -83.627808105,
    "type": "FoodPantry",
    "hours": "Please schedule an appointment by calling:  810-515-1978: \n\nMonday & Tuesday \n9:00 am to 6:00 pm\nWednesday 2:00 pm to 5:00 pm\nFriday & Saturday \n9:00 am to 12:00 pm\n",
    "address": "11723 S. Saginaw, Grand Blanc, MI 48439",
    "phone": null,
    "notes": "\n1. Open to all students and residents of the Grand Blanc School District.\n2. CURBSIDE SERVICE ONLY\n3. Bring valid Michigan picture ID and proof of residency or GBCS Student ID\n5. Food Emergencies please call:  810-515-1978\n6. See https://www.facebook.co",
    "ebt_accepted": 0,
    "dufb_offered": 0,
    "wic_accepted": 0
  },
  {
    "id": "pantry_16103.0",
    "name": "Holy Family Catholic Church Outreach Center",
    "lat": 42.9251642027,
    "lng": -83.627242578,
    "type": "FoodPantry",
    "hours": "Monday through Friday\n10:00 am to 2:00 pm",
    "address": "11714 S. Saginaw Street, Grand Blanc, MI 48439",
    "phone": "810-771-7279",
    "notes": "1. CURBSIDE SERVICE ONLY - Knock on the door\n2. SERVES ONLY CLIENTS LIVING IN THE AREA FROM BALDWIN ROAD TO I-69 AND I-75 TO IRISH ROAD \n3. Photo ID required",
    "ebt_accepted": 0,
    "dufb_offered": 0,
    "wic_accepted": 0
  },
  {
    "id": "pantry_16104.0",
    "name": "Lennon Area Food Pantry",
    "lat": 42.983823,
    "lng": -83.942218,
    "type": "FoodPantry",
    "hours": "Tuesday 6:00 pm to 8:00 pm",
    "address": "Lennon Wesleyan Church\n11280 E. Lennon Road, Lennon, MI 48449",
    "phone": "810-621-3706",
    "notes": "See https://www.facebook.com/Lennon-Area-Food-Pantry-461927394310605/ for updates",
    "ebt_accepted": 0,
    "dufb_offered": 0,
    "wic_accepted": 0
  },
  {
    "id": "pantry_16105.0",
    "name": "Linden Presbyterian Church - FISH Food Pantry",
    "lat": 42.8144710291,
    "lng": -83.7834847736,
    "type": "FoodPantry",
    "hours": "Wednesday 4:30 pm to 5:30 pm \nThursday 10:00 am to 11:00 am, Outdoor FISH Pantry \nOpen 24 hours a day, 7 days a week",
    "address": "119 W. Broad Street, Linden, MI 48451",
    "phone": "810-735-5755",
    "notes": "1. SERVICES ONLY THOSE LIVING IN THE LINDEN, LAKE FENTON, GAINES AND BYRON SCHOOL DISTRICTS \n2. MUST SCHEDULE AN APPOINTMENT by calling 810-735-5755 Monday to Thursday from 8:00 am to 1:00 pm\n3. See https://www.facebook.com/LindenPres for updates",
    "ebt_accepted": 0,
    "dufb_offered": 0,
    "wic_accepted": 0
  },
  {
    "id": "pantry_16106.0",
    "name": "Sweet Pea's Pantry",
    "lat": 43.1762174578,
    "lng": -83.893411003,
    "type": "FoodPantry",
    "hours": "Second & Fourth Saturday of Every Month\n9:00 am to 11:00 am",
    "address": "108 West State Street, Montrose, MI 48457\n(in the alley behind the building)",
    "phone": "810-350-2254",
    "notes": "1. SERVES FAMILIES IN MONTROSE\n2. See https://www.facebook.com/Sweet-Peas-Pantry-105788871006206/ for updates",
    "ebt_accepted": 0,
    "dufb_offered": 0,
    "wic_accepted": 0
  },
  {
    "id": "pantry_16107.0",
    "name": "St. Vincent De Paul Society Food Pantry (at St. Mary Catholic Church)",
    "lat": 43.1128640161,
    "lng": -83.6914259958,
    "type": "FoodPantry",
    "hours": "Tuesday 9:00 am to 11:45 am",
    "address": "11110 Saginaw Street, Mt. Morris, MI 48458",
    "phone": "810-686-3920",
    "notes": "SERVES ONLY CLIENTS LIVING IN THE AREA BORDERED BY LINDEN ROAD, CENTER ROAD, DODGE ROAD AND CARPENTER ROAD",
    "ebt_accepted": 0,
    "dufb_offered": 0,
    "wic_accepted": 0
  },
  {
    "id": "pantry_16108.0",
    "name": "2nd Chance Church",
    "lat": 43.0902635964,
    "lng": -83.6949665211,
    "type": "FoodPantry",
    "hours": "Friday 10:00 am",
    "address": "Former Beecher High School\n1020 Coldwater Road, Flint, MI 48505",
    "phone": null,
    "notes": "1. DRIVE-THROUGH SERVICE ONLY\n2. See https://www.facebook.com/2ndChanceChurchFlint/ for updates",
    "ebt_accepted": 0,
    "dufb_offered": 0,
    "wic_accepted": 0
  },
  {
    "id": "pantry_16109.0",
    "name": "Fairhaven Seventh-Day Adventist Church",
    "lat": 43.0887566149,
    "lng": -83.7091781123,
    "type": "FoodPantry",
    "hours": "Thursday 11:00 am to 1:00 pm",
    "address": "G-1379 West Louis Avenue, Flint, MI 48505",
    "phone": "810-787-3687",
    "notes": "Call Love, Inc. at 810-235-4990 for a referral",
    "ebt_accepted": 0,
    "dufb_offered": 0,
    "wic_accepted": 0
  },
  {
    "id": "pantry_16110.0",
    "name": "Glad Tidings Church Ministries",
    "lat": 43.0896673506,
    "lng": -83.7241029291,
    "type": "FoodPantry",
    "hours": "Every Other Tuesday\n10:00 am to 1:00 pm (or until the food is gone",
    "address": "2266 W. Coldwater Road, Flint, MI 48505",
    "phone": "810-785-9555",
    "notes": null,
    "ebt_accepted": 0,
    "dufb_offered": 0,
    "wic_accepted": 0
  },
  {
    "id": "pantry_16111.0",
    "name": "Mt. Morris Christian Faith Church",
    "lat": 43.1200194792,
    "lng": -83.6611796467,
    "type": "FoodPantry",
    "hours": "Third Tuesday of Every Month\nOpen BY 4:00 pm to 5:30 pm (or until food is gone)\nCLOSED DECEMBER THROUGH MARCH",
    "address": "2451 E. Mt Morris Road, Mount Morris, MI 48458",
    "phone": null,
    "notes": "1. DRIVE-THROUGH SERVICE ONLY\n2. See https://www.facebook.com/MMCFCHURCH for updates.",
    "ebt_accepted": 0,
    "dufb_offered": 0,
    "wic_accepted": 0
  },
  {
    "id": "pantry_16112.0",
    "name": "Our Lady of Guadalupe Church",
    "lat": 43.0896272851,
    "lng": -83.7259216345,
    "type": "FoodPantry",
    "hours": "Next: TBA",
    "address": "G2316 N Coldwater Road, Flint, MI 48505",
    "phone": "810-787-5701",
    "notes": "Call or see https://www.facebook.com/Martus-Luna-Food-Pantry-1468502823282464/ for updates",
    "ebt_accepted": 0,
    "dufb_offered": 0,
    "wic_accepted": 0
  },
  {
    "id": "pantry_16113.0",
    "name": "The Salvation Army-Flint Beecher Corps",
    "lat": 43.090278978,
    "lng": -83.7123045622,
    "type": "FoodPantry",
    "hours": "Tuesday 10:00 am to 12:00 pm (or until food supply is gone",
    "address": "1475 W. Coldwater Road, Flint, MI 48505",
    "phone": "810-789-4003",
    "notes": "1. Please bring photo ID with you for food\n2. Seehttps://www.facebook.com/FlintBeecherTSAA for updates",
    "ebt_accepted": 0,
    "dufb_offered": 0,
    "wic_accepted": 0
  },
  {
    "id": "pantry_16114.0",
    "name": "Trinity Assembly\nof God",
    "lat": 43.1148250043,
    "lng": -83.7667190394,
    "type": "FoodPantry",
    "hours": "Friday 9:00 am to 11:00 am or until food is gone.",
    "address": "4363 W. Mt Morris Road, Mt Morris, MI 48458",
    "phone": null,
    "notes": null,
    "ebt_accepted": 0,
    "dufb_offered": 0,
    "wic_accepted": 0
  },
  {
    "id": "pantry_16115.0",
    "name": "Westwood Heights Schools",
    "lat": 43.0594,
    "lng": -83.75309,
    "type": "FoodPantry",
    "hours": "Next Distribution: TBA",
    "address": "McMonagle Elementary School\n3484 N. Jennings Road, Flint, MI 48504",
    "phone": null,
    "notes": "See https://www.facebook.com/HamadyHawks/ for updates.",
    "ebt_accepted": 0,
    "dufb_offered": 0,
    "wic_accepted": 0
  },
  {
    "id": "pantry_16116.0",
    "name": "1st United Church",
    "lat": 42.9442901551,
    "lng": -83.6966984643,
    "type": "FoodPantry",
    "hours": "Wednesday, Friday & Saturday \n10:00 am to 12:00 pm",
    "address": "1116 W. Hill Road, Flint, MI 48507",
    "phone": "810-232-2674",
    "notes": "1. DRIVE-THROUGH SERVICE ONLY \n2. No ID required\n3. See www.facebook.com/FirstUnitedFood for weekly updates",
    "ebt_accepted": 0,
    "dufb_offered": 0,
    "wic_accepted": 0
  },
  {
    "id": "pantry_16117.0",
    "name": "Holy Spirit Lutheran Church",
    "lat": 42.923962112,
    "lng": -83.6914134229,
    "type": "FoodPantry",
    "hours": "Third Saturday BY 9:00 am until food is gone",
    "address": "7234 Fenton Rd, Grand Blanc, MI 48439",
    "phone": "810-424-6707",
    "notes": "1. MAY THROUGH OCTOBER ONLY \n2. Arrive early - First Come, First Served\n3. Photo ID required",
    "ebt_accepted": 0,
    "dufb_offered": 0,
    "wic_accepted": 0
  },
  {
    "id": "pantry_16118.0",
    "name": "St. Francis Xavier Outreach",
    "lat": 43.1722376883,
    "lng": -83.5200120525,
    "type": "FoodPantry",
    "hours": "Last Thursday of the Month\n11:00 am to 2:30 pm\nNext: January 27th",
    "address": "Quaderer Hall 212 Center Street, Otisville, MI 48463",
    "phone": "810-631-6305",
    "notes": "1. DRIVE-THROUGH SERVICE ONLY\n2. Currently serving all areas (usually serves Columbiaville, Millington, Otisville and Otter Lake areas)",
    "ebt_accepted": 0,
    "dufb_offered": 0,
    "wic_accepted": 0
  },
  {
    "id": "pantry_16119.0",
    "name": "Richfield Church of the Nazarene",
    "lat": 43.1207861719,
    "lng": -83.5594231745,
    "type": "FoodPantry",
    "hours": "Tuesday & Thursday\n8:30 am to 10:00 am",
    "address": "7524 E. Mt Morris Road, Otisville, MI 48463",
    "phone": "810-653-6218",
    "notes": "1. DRIVE-THROUGH SERVICE ONLY \n2. Ring doorbell for service \n3. YOU MUST CALL the day before to make an appointment: 810-653-6218                                                                              \n4. No zip code restrictions\n5. Two visits per",
    "ebt_accepted": 0,
    "dufb_offered": 0,
    "wic_accepted": 0
  },
  {
    "id": "pantry_16120.0",
    "name": "Helping Other People Eat Community Pantry (H.O.P.E.)",
    "lat": 42.957227455,
    "lng": -83.8325650077,
    "type": "FoodPantry",
    "hours": "Open 24 hours a day, 7 days a week",
    "address": "Centerpiece Plaza\n8048 Miller Road, Swartz Creek, MI 48473\n(Northeast corner of parking lot)",
    "phone": null,
    "notes": "1. Serves all residents of Genesee County and the surrounding areas\n2. Self-serve, public access pantry. Please use care when selecting food.",
    "ebt_accepted": 0,
    "dufb_offered": 0,
    "wic_accepted": 0
  },
  {
    "id": "pantry_16121.0",
    "name": "Swartz Creek Church of Christ Food Pantry",
    "lat": 42.9602091075,
    "lng": -83.8505094051,
    "type": "FoodPantry",
    "hours": "January through October - Last Saturday of the Month \nNovember and December - Third Saturday of the Month \n10:00 am to 12:00 pm",
    "address": "4410 S. Seymour Road, Swartz Creek, Michigan 48473",
    "phone": "810-635-4544",
    "notes": "SERVES GENESEE COUNTY RESIDENTS ONLY",
    "ebt_accepted": 0,
    "dufb_offered": 0,
    "wic_accepted": 0
  },
  {
    "id": "pantry_16122.0",
    "name": "Swartz Creek Community Food Basket",
    "lat": 42.959299,
    "lng": -83.823221,
    "type": "FoodPantry",
    "hours": "Tuesday 3:00 pm to 5:00 pm \nFriday 10:00 am to 12:00 pm",
    "address": "Swartz Creek United Methodist Church \n7400 Miller Road, Swartz Creek, MI 48473 Door 6",
    "phone": "810-635-4555",
    "notes": "SERVES SWARTZ CREEK RESIDENTS ONLY",
    "ebt_accepted": 0,
    "dufb_offered": 0,
    "wic_accepted": 0
  },
  {
    "id": "pantry_16123.0",
    "name": "Clio Area Ministerial Association",
    "lat": 43.1486870968,
    "lng": -83.7049278168,
    "type": "FoodPantry",
    "hours": "One Saturday per Month\n9:00 am to 11:00 am\nNext: January 8th",
    "address": "Burley Farms 1271 W. Dodge Road, Clio, MI 48420",
    "phone": null,
    "notes": null,
    "ebt_accepted": 0,
    "dufb_offered": 0,
    "wic_accepted": 0
  },
  {
    "id": "market_25",
    "name": "Southern Pride Market Inc",
    "lat": 43.0327528,
    "lng": -83.6573265,
    "type": "FoodRetailer",
    "hours": "Mon - Sun, 11am - 9pm",
    "address": "2602 Davison Rd Flint, Mi 48506",
    "phone": "810-515-1587",
    "url": null,
    "ebt_accepted": 1,
    "dufb_offered": 0,
    "wic_accepted": 1
  },
  {
    "id": "market_29",
    "name": "Discount Rx Pharmacy",
    "lat": 42.98388020000001,
    "lng": -83.67714749999999,
    "type": "FoodRetailer",
    "hours": "Mon-Fri, 9am - 5pm",
    "address": "4400 S Saginaw St Flint, Mi 48507",
    "phone": "(810) 239-2667",
    "url": null,
    "ebt_accepted": 1,
    "dufb_offered": 0,
    "wic_accepted": 1
  },
  {
    "id": "market_31",
    "name": "Rite Aid #4438",
    "lat": 42.989131,
    "lng": -83.6924339,
    "type": "FoodRetailer",
    "hours": "Mon - Sun, 8am -10pm",
    "address": "3717 Fenton Rd Flint, Mi 48507",
    "phone": "(810) 232-5118",
    "url": null,
    "ebt_accepted": 1,
    "dufb_offered": 0,
    "wic_accepted": 1
  },
  {
    "id": "market_35",
    "name": "Rite Aid Pharmacy #4761",
    "lat": 43.0251211,
    "lng": -83.7307883,
    "type": "FoodRetailer",
    "hours": "Mon - Sun, 8am -10pm",
    "address": "1124 N Ballenger Hwy Flint, Mi 48504",
    "phone": "(810) 233-6765",
    "url": null,
    "ebt_accepted": 1,
    "dufb_offered": 0,
    "wic_accepted": 1
  },
  {
    "id": "market_37",
    "name": "Rite Aid Discount Pharmacy #4504",
    "lat": 43.01772709999999,
    "lng": -83.6533657,
    "type": "FoodRetailer",
    "hours": "Mon - Sun, 8am -10pm",
    "address": "2838 E Court St Flint, Mi 48503",
    "phone": "(810) 767-3059",
    "url": null,
    "ebt_accepted": 1,
    "dufb_offered": 0,
    "wic_accepted": 1
  },
  {
    "id": "market_41",
    "name": "Rite Aid Discount Pharmacy #4588",
    "lat": 43.0019335,
    "lng": -83.73260789999999,
    "type": "FoodRetailer",
    "hours": "Mon - Sun, 8am -10pm",
    "address": "3521 Corunna Rd Flint, Mi 48503",
    "phone": "(810) 235-6363",
    "url": null,
    "ebt_accepted": 1,
    "dufb_offered": 0,
    "wic_accepted": 1
  },
  {
    "id": "market_43",
    "name": "Mikes Grocery Inc",
    "lat": 43.0606437,
    "lng": -83.7176305,
    "type": "FoodRetailer",
    "hours": "Mon - Sat, 7am - 11pm; Sun, 12pm - 8pm",
    "address": "1013 W Pierson Rd Flint, Mi 48505",
    "phone": "(810) 789-5406 ",
    "url": null,
    "ebt_accepted": 1,
    "dufb_offered": 0,
    "wic_accepted": 1
  },
  {
    "id": "market_47",
    "name": "Z'S Liquor Mart ",
    "lat": 43.042662,
    "lng": -83.6656363,
    "type": "FoodRetailer",
    "hours": "Mon - Sat, 9am - 2am; Sun, 11am - 2am",
    "address": "3007 N Franklin Ave Flint, Mi 48506",
    "phone": "(810) 285-9957",
    "url": null,
    "ebt_accepted": 1,
    "dufb_offered": 0,
    "wic_accepted": 1
  },
  {
    "id": "market_49",
    "name": "Sims Market ",
    "lat": 43.0614272,
    "lng": -83.70425519999999,
    "type": "FoodRetailer",
    "hours": "Mon - Sat, 7am - 2am; Sun, 8am -12pm",
    "address": "101 E Pierson Flint, Mi 48505",
    "phone": "(810) 787-2275",
    "url": null,
    "ebt_accepted": 1,
    "dufb_offered": 0,
    "wic_accepted": 1
  },
  {
    "id": "market_53",
    "name": "Liquor Palace Of Flint ",
    "lat": 42.9928915,
    "lng": -83.6541477,
    "type": "FoodRetailer",
    "hours": "nan",
    "address": "3302 S Dort Hwy Flint, Mi 48507",
    "phone": "(810) 820-9861",
    "url": null,
    "ebt_accepted": 1,
    "dufb_offered": 0,
    "wic_accepted": 1
  },
  {
    "id": "market_57",
    "name": "Clio Road Drive Thru ",
    "lat": 43.0527448,
    "lng": -83.7330916,
    "type": "FoodRetailer",
    "hours": "nan",
    "address": "4203 Clio Rd Flint, Mi 48504",
    "phone": "(810) 720-8777",
    "url": null,
    "ebt_accepted": 1,
    "dufb_offered": 0,
    "wic_accepted": 1
  },
  {
    "id": "market_59",
    "name": "Westgate Liquor",
    "lat": 42.9879306,
    "lng": -83.70293509999999,
    "type": "FoodRetailer",
    "hours": "Mon - Sun, 8am - Midnight",
    "address": "1633 W Atherton Flint, Mi 48507",
    "phone": "(810)422-7493",
    "url": null,
    "ebt_accepted": 1,
    "dufb_offered": 0,
    "wic_accepted": 1
  },
  {
    "id": "market_63",
    "name": "Easy Shop",
    "lat": 43.0751943,
    "lng": -83.70722339999999,
    "type": "FoodRetailer",
    "hours": "nan",
    "address": "201 W Carpenter Rd Flint, Mi 48505",
    "phone": "(810) 785-8820",
    "url": null,
    "ebt_accepted": 1,
    "dufb_offered": 0,
    "wic_accepted": 1
  },
  {
    "id": "market_65",
    "name": "Quick Pick",
    "lat": 43.0302778,
    "lng": -83.7156203,
    "type": "FoodRetailer",
    "hours": "Mon - Sun, 9am -1am",
    "address": "1652 N Chevrolet Flint, Mi 48504",
    "phone": "(810) 820-3318",
    "url": null,
    "ebt_accepted": 1,
    "dufb_offered": 0,
    "wic_accepted": 1
  },
  {
    "id": "market_67",
    "name": "Juliano'S C Store",
    "lat": 43.0026563,
    "lng": -83.7328219,
    "type": "FoodRetailer",
    "hours": "Mon - Sat, 9am - 2am; Sun, 11am - 10pm",
    "address": "3518 Corunna Rd Flint, Mi 48503",
    "phone": "(810) 239-6581",
    "url": null,
    "ebt_accepted": 1,
    "dufb_offered": 0,
    "wic_accepted": 1
  },
  {
    "id": "market_71",
    "name": "Liquor Corner Two Inc",
    "lat": 43.0011889,
    "lng": -83.6930048,
    "type": "FoodRetailer",
    "hours": "Mon - Sat: 9am - 2am; Sun: 10am - 12am",
    "address": "1945 Fenton Rd Flint, Mi 48507",
    "phone": "(810) 234-7790",
    "url": null,
    "ebt_accepted": 1,
    "dufb_offered": 0,
    "wic_accepted": 1
  },
  {
    "id": "market_73",
    "name": "Tony K'S Party Shoppe",
    "lat": 42.9849797,
    "lng": -83.693383,
    "type": "FoodRetailer",
    "hours": "Mon - Sun, 8am - 12 am",
    "address": "4202 Fenton Rd Flint, Mi 48507",
    "phone": "(810) 767-8050",
    "url": null,
    "ebt_accepted": 1,
    "dufb_offered": 0,
    "wic_accepted": 1
  },
  {
    "id": "market_77",
    "name": "Liquor Cave",
    "lat": 43.0754375,
    "lng": -83.7339009,
    "type": "FoodRetailer",
    "hours": "nan",
    "address": "5011 Clio Flint, Mi 48504",
    "phone": "(810) 789-1111",
    "url": null,
    "ebt_accepted": 1,
    "dufb_offered": 0,
    "wic_accepted": 1
  },
  {
    "id": "market_81",
    "name": "Sams Rollingwood Market",
    "lat": 43.0569491,
    "lng": -83.65616299999999,
    "type": "FoodRetailer",
    "hours": "Mon - Sun: 6am - 10pm",
    "address": "4612 Western Rd Flint, Mi 48506",
    "phone": "(810) 736-6618",
    "url": null,
    "ebt_accepted": 1,
    "dufb_offered": 0,
    "wic_accepted": 1
  },
  {
    "id": "market_83",
    "name": "Nikolais Neighborhood Party Store",
    "lat": 43.0459847,
    "lng": -83.71904190000001,
    "type": "FoodRetailer",
    "hours": "nan",
    "address": "1113 W Pasadena Flint, Mi 48504",
    "phone": "(810) 787-1405",
    "url": null,
    "ebt_accepted": 1,
    "dufb_offered": 0,
    "wic_accepted": 1
  },
  {
    "id": "market_85",
    "name": "Cheers Market",
    "lat": 43.0066616,
    "lng": -83.7258492,
    "type": "FoodRetailer",
    "hours": "Mon - Sat: 9am - 2am; Sun: 12pm - 12am",
    "address": "2809 W Court St Flint, Mi 48503",
    "phone": "(810) 232-7645",
    "url": null,
    "ebt_accepted": 1,
    "dufb_offered": 0,
    "wic_accepted": 1
  },
  {
    "id": "market_89",
    "name": "Dado Market 1817 Inc ",
    "lat": 43.0333265,
    "lng": -83.6940267,
    "type": "FoodRetailer",
    "hours": "Mon - Sun, 10am - 2am",
    "address": "1817 N Saginaw Flint, Mi 48505",
    "phone": "(810) 238-2447",
    "url": null,
    "ebt_accepted": 1,
    "dufb_offered": 0,
    "wic_accepted": 1
  },
  {
    "id": "market_91",
    "name": "Kings Market ",
    "lat": 43.0311882,
    "lng": -83.70324509999999,
    "type": "FoodRetailer",
    "hours": "nan",
    "address": "1602 Oren Avenue Flint, Mi 48503",
    "phone": "(810) 238-2425",
    "url": null,
    "ebt_accepted": 1,
    "dufb_offered": 0,
    "wic_accepted": 1
  },
  {
    "id": "market_95",
    "name": "Liquor Wheel ",
    "lat": 43.0518989,
    "lng": -83.7330681,
    "type": "FoodRetailer",
    "hours": "nan",
    "address": "4117 Clio Rd Flint, Mi 48504",
    "phone": "(810) 732-6475",
    "url": null,
    "ebt_accepted": 1,
    "dufb_offered": 0,
    "wic_accepted": 1
  },
  {
    "id": "market_97",
    "name": "South End Market Flint ",
    "lat": 43.0055574,
    "lng": -83.6796773,
    "type": "FoodRetailer",
    "hours": "Mon - Sun, 7am - 2am",
    "address": "1701 S Saginaw St Flint, Mi 48503",
    "phone": "(810) 234-0322",
    "url": null,
    "ebt_accepted": 1,
    "dufb_offered": 0,
    "wic_accepted": 1
  },
  {
    "id": "market_101",
    "name": "Easy Pick Food Shoppe",
    "lat": 43.0369942,
    "lng": -83.6748796,
    "type": "FoodRetailer",
    "hours": "Mon - Th: 9am - 11pm; Fri - Sat: 9am - Midnight; Sun: 10am - Midnight",
    "address": "2318 Lewis St Flint, Mi 48506",
    "phone": "(810)767-2977",
    "url": null,
    "ebt_accepted": 1,
    "dufb_offered": 0,
    "wic_accepted": 1
  },
  {
    "id": "market_107",
    "name": "Big D Party Store  ",
    "lat": 42.97151299999999,
    "lng": -83.64934799999999,
    "type": "FoodRetailer",
    "hours": "nan",
    "address": "4101 N Dort Hwy Flint, Mi 48505",
    "phone": "(810) 787-3246",
    "url": null,
    "ebt_accepted": 1,
    "dufb_offered": 0,
    "wic_accepted": 1
  },
  {
    "id": "market_111",
    "name": "Macs Food Fair",
    "lat": 43.028427,
    "lng": -83.65566439999999,
    "type": "FoodRetailer",
    "hours": "Mon - Fri, 9am - 2am; Sat, 10am - 2am; Sun, 12pm - 12am",
    "address": "1235 N Dort Hwy Flint, Mi 48506",
    "phone": "(810) 239-2022",
    "url": null,
    "ebt_accepted": 1,
    "dufb_offered": 0,
    "wic_accepted": 1
  },
  {
    "id": "market_113",
    "name": "Saba'S Mini Mart ",
    "lat": 43.0537964,
    "lng": -83.71382559999999,
    "type": "FoodRetailer",
    "hours": "Mon - Sun, 9am -11pm",
    "address": "701 W Stewart Flint, Mi 48504",
    "phone": "(810) 785-0801",
    "url": null,
    "ebt_accepted": 1,
    "dufb_offered": 0,
    "wic_accepted": 1
  },
  {
    "id": "market_117",
    "name": "4-Way Party Store ",
    "lat": 43.0226597,
    "lng": -83.7124621,
    "type": "FoodRetailer",
    "hours": "10am - 10pm; Closed some Sundays + Holidays",
    "address": "1302 Dupont Flint, Mi 48504",
    "phone": "(810) 234-6444",
    "url": null,
    "ebt_accepted": 1,
    "dufb_offered": 0,
    "wic_accepted": 1
  },
  {
    "id": "market_123",
    "name": "Zerka Food Center ",
    "lat": 43.0752615,
    "lng": -83.71110159999999,
    "type": "FoodRetailer",
    "hours": "Mon - Sun, 8am - 2am",
    "address": "523 W Carpenter Rd Flint, Mi 48505",
    "phone": "810-787-3188",
    "url": null,
    "ebt_accepted": 1,
    "dufb_offered": 0,
    "wic_accepted": 1
  },
  {
    "id": "market_125",
    "name": "Corunna Dollar Store ",
    "lat": 43.002979,
    "lng": -83.72160099999999,
    "type": "FoodRetailer",
    "hours": "nan",
    "address": "2605 Corunna Rd Flint, Mi 48503",
    "phone": "(810) 342-0515",
    "url": null,
    "ebt_accepted": 1,
    "dufb_offered": 0,
    "wic_accepted": 1
  },
  {
    "id": "market_127",
    "name": "Lapeer Liquor Shoppe",
    "lat": 43.0100953,
    "lng": -83.648163,
    "type": "FoodRetailer",
    "hours": "Monday - Sunday, 8am - 2am",
    "address": "3401 Lapeer Rd Flint, Mi 48503",
    "phone": "(810) 743-6746",
    "url": null,
    "ebt_accepted": 1,
    "dufb_offered": 0,
    "wic_accepted": 1
  },
  {
    "id": "market_1073",
    "name": "Rye Bakery, The",
    "lat": 43.063216,
    "lng": -83.854776,
    "type": "FoodRetailer",
    "hours": "nan",
    "address": "127 E Main St Flushing, Mi 48433",
    "phone": null,
    "url": null,
    "ebt_accepted": 1,
    "dufb_offered": 0,
    "wic_accepted": 1
  },
  {
    "id": "market_141",
    "name": "Safaros Food Store",
    "lat": 43.0670728,
    "lng": -83.7329049,
    "type": "FoodRetailer",
    "hours": "nan",
    "address": "6016 Clio Rd Flint, Mi 48504",
    "phone": "(810) 787-5626",
    "url": null,
    "ebt_accepted": 1,
    "dufb_offered": 0,
    "wic_accepted": 1
  },
  {
    "id": "market_147",
    "name": "D & H Market ",
    "lat": 43.03580470000001,
    "lng": -83.7040153,
    "type": "FoodRetailer",
    "hours": "nan",
    "address": "2134 M L King Ave Flint, Mi 48503",
    "phone": "(810) 234-9231",
    "url": null,
    "ebt_accepted": 1,
    "dufb_offered": 0,
    "wic_accepted": 1
  },
  {
    "id": "market_153",
    "name": "E-Z  Stop",
    "lat": 43.00345249999999,
    "lng": -83.6531936,
    "type": "FoodRetailer",
    "hours": "nan",
    "address": "2101 S Dort Hwy Flint, Mi 48507",
    "phone": "(810) 239-4445",
    "url": null,
    "ebt_accepted": 1,
    "dufb_offered": 0,
    "wic_accepted": 1
  },
  {
    "id": "market_157",
    "name": "Holiday Wine Shoppe",
    "lat": 43.0465735,
    "lng": -83.7322603,
    "type": "FoodRetailer",
    "hours": "Mon - Sat: 9am -1am; Sun, 9am - 12am",
    "address": "3412 Clio Rd Flint, Mi 48504",
    "phone": "(810) 789-4030",
    "url": null,
    "ebt_accepted": 1,
    "dufb_offered": 0,
    "wic_accepted": 1
  },
  {
    "id": "market_161",
    "name": "Sals Party Store Inc",
    "lat": 42.9933781,
    "lng": -83.69338429999999,
    "type": "FoodRetailer",
    "hours": "Mon - Fri, 9am -12am",
    "address": "3026 Fenton Rd Flint, Mi 48507",
    "phone": "(810) 471-9717",
    "url": null,
    "ebt_accepted": 1,
    "dufb_offered": 0,
    "wic_accepted": 1
  },
  {
    "id": "market_163",
    "name": "Jules Market Inc",
    "lat": 43.0362005,
    "lng": -83.6748796,
    "type": "FoodRetailer",
    "hours": "Mon - Sat, 9:30 am - 9:30pm; Sun, 11am - 9:30pm",
    "address": "2212 Lewis St Flint, Mi 48506",
    "phone": "(810) 232-8912",
    "url": null,
    "ebt_accepted": 1,
    "dufb_offered": 0,
    "wic_accepted": 1
  },
  {
    "id": "market_165",
    "name": "Kc'S Market Iii ",
    "lat": 43.05059019999999,
    "lng": -83.6460857,
    "type": "FoodRetailer",
    "hours": "nan",
    "address": "3246 Richfield Rd Flint, Mi 48506",
    "phone": "(810) 736-8520",
    "url": null,
    "ebt_accepted": 1,
    "dufb_offered": 0,
    "wic_accepted": 1
  },
  {
    "id": "market_173",
    "name": "Hinky Dinky Market",
    "lat": 43.0445012,
    "lng": -83.7044284,
    "type": "FoodRetailer",
    "hours": "Mon - Sun, 8am - 9pm",
    "address": "3110 Ml King Ave  Flint, Mi 48505",
    "phone": "(810) 789-0990",
    "url": null,
    "ebt_accepted": 1,
    "dufb_offered": 0,
    "wic_accepted": 1
  },
  {
    "id": "market_175",
    "name": "Fresh Choice Market Place Flint",
    "lat": 43.0322154,
    "lng": -83.66468069999999,
    "type": "FoodRetailer",
    "hours": "Mon-Sat, 8am-9pm; Sun, 8am - 7pm",
    "address": "1916 Davison Road Flint, Mi 48506",
    "phone": "(810) 285-9921",
    "url": null,
    "ebt_accepted": 1,
    "dufb_offered": 0,
    "wic_accepted": 1
  },
  {
    "id": "market_181",
    "name": "Mr B'S Foodland",
    "lat": 43.0545689,
    "lng": -83.71483970000001,
    "type": "FoodRetailer",
    "hours": "Mon - Sat 8am - 9pm; Sun - 9am - 7pm",
    "address": "4311 Dupont Flint, Mi 48505",
    "phone": "(810) 789-8121",
    "url": null,
    "ebt_accepted": 1,
    "dufb_offered": 0,
    "wic_accepted": 1
  },
  {
    "id": "market_183",
    "name": "Kamils Mid Eastern Food",
    "lat": 43.00203500000001,
    "lng": -83.7348076,
    "type": "FoodRetailer",
    "hours": "Mon - Sun: 9:30 am - 8:30 pm",
    "address": "3701 Corunna Rd Flint, Mi 48532",
    "phone": "(810) 239-5819",
    "url": null,
    "ebt_accepted": 1,
    "dufb_offered": 0,
    "wic_accepted": 1
  },
  {
    "id": "market_187",
    "name": "Cal'S Marathon Llc",
    "lat": 43.0099385,
    "lng": -83.6550212,
    "type": "FoodRetailer",
    "hours": "24/7",
    "address": "1780 South Dort Hwy Flint, Mi 48503",
    "phone": "810-235-1400",
    "url": null,
    "ebt_accepted": 1,
    "dufb_offered": 0,
    "wic_accepted": 1
  },
  {
    "id": "market_189",
    "name": "Gas Masters #6 Inc ",
    "lat": 43.0506174,
    "lng": -83.73307910000001,
    "type": "FoodRetailer",
    "hours": "24/7",
    "address": "4005 Clio Rd Flint, Mi 48504",
    "phone": "(810) 787-2209",
    "url": null,
    "ebt_accepted": 1,
    "dufb_offered": 0,
    "wic_accepted": 1
  },
  {
    "id": "market_191",
    "name": "Dort Hwy Gas & Mart Inc ",
    "lat": 43.075515,
    "lng": -83.6738678,
    "type": "FoodRetailer",
    "hours": "24/7",
    "address": "7030 Dort Hwy Flint, Mi 48505",
    "phone": "(810) 785-1731",
    "url": null,
    "ebt_accepted": 1,
    "dufb_offered": 0,
    "wic_accepted": 1
  },
  {
    "id": "market_195",
    "name": "Marathon - B Raj Investment Llc",
    "lat": 43.0027946,
    "lng": -83.72506369999999,
    "type": "FoodRetailer",
    "hours": "Monday - Sunday, 5am - 10pm (openning and closing hours may vary)",
    "address": "2800 Corunna Road Flint, Mi 48503",
    "phone": "810-235-1635",
    "url": null,
    "ebt_accepted": 1,
    "dufb_offered": 0,
    "wic_accepted": 1
  },
  {
    "id": "market_197",
    "name": "Sunoco Gas Station",
    "lat": 43.0181603,
    "lng": -83.65493719999999,
    "type": "FoodRetailer",
    "hours": "24/7",
    "address": "902 Dort Hwy Flint, Mi 48503",
    "phone": "(810) 785-1731",
    "url": null,
    "ebt_accepted": 1,
    "dufb_offered": 0,
    "wic_accepted": 1
  },
  {
    "id": "market_201",
    "name": "Marathon - A And B Gas Inc",
    "lat": 43.0424321,
    "lng": -83.69418189999999,
    "type": "FoodRetailer",
    "hours": "24/7",
    "address": "2905 N Saginaw St Flint, Mi 48505",
    "phone": "810-238-7741",
    "url": null,
    "ebt_accepted": 1,
    "dufb_offered": 0,
    "wic_accepted": 1
  },
  {
    "id": "market_203",
    "name": "Merauiz Oil Inc",
    "lat": 43.03281610000001,
    "lng": -83.66017269999999,
    "type": "FoodRetailer",
    "hours": "24/7",
    "address": "2320 Davison Rd Flint, Mi 48506",
    "phone": "810-233-6732",
    "url": null,
    "ebt_accepted": 1,
    "dufb_offered": 0,
    "wic_accepted": 1
  },
  {
    "id": "market_207",
    "name": "King Oil Mart Llc ",
    "lat": 43.0461337,
    "lng": -83.7049584,
    "type": "FoodRetailer",
    "hours": "24/7",
    "address": "3317 Martin L King Ave Flint, Mi 48505",
    "phone": "810-407-7172",
    "url": null,
    "ebt_accepted": 1,
    "dufb_offered": 0,
    "wic_accepted": 1
  },
  {
    "id": "market_211",
    "name": "Aas Gas Mart ",
    "lat": 43.033105,
    "lng": -83.65567949999999,
    "type": "FoodRetailer",
    "hours": "24/7",
    "address": "1901 N Dort Hwy Flint, Mi 48506",
    "phone": "(810) 232-7330",
    "url": null,
    "ebt_accepted": 1,
    "dufb_offered": 0,
    "wic_accepted": 1
  },
  {
    "id": "market_213",
    "name": "Fleming Oil Inc",
    "lat": 43.060464,
    "lng": -83.723292,
    "type": "FoodRetailer",
    "hours": "24/7",
    "address": "5140 Fleming Rd Flint, Mi 48504",
    "phone": "810-785-6582",
    "url": null,
    "ebt_accepted": 1,
    "dufb_offered": 0,
    "wic_accepted": 1
  },
  {
    "id": "market_215",
    "name": "Ez Fuel Inc ",
    "lat": 42.9888615,
    "lng": -83.6539488,
    "type": "FoodRetailer",
    "hours": "24/7",
    "address": "1330 E Atherton Flint, Mi 48507",
    "phone": "(810) 744-4452",
    "url": null,
    "ebt_accepted": 1,
    "dufb_offered": 0,
    "wic_accepted": 1
  },
  {
    "id": "market_219",
    "name": "Dous Oil Inc ",
    "lat": 43.0676115,
    "lng": -83.7330601,
    "type": "FoodRetailer",
    "hours": "24/7",
    "address": "6040 Clio Rd Flint, Mi 48504",
    "phone": "810-789-8816",
    "url": null,
    "ebt_accepted": 1,
    "dufb_offered": 0,
    "wic_accepted": 1
  },
  {
    "id": "market_221",
    "name": "Marathon",
    "lat": 43.07516560000001,
    "lng": -83.6932169,
    "type": "FoodRetailer",
    "hours": "24/7",
    "address": "7022 N Saginaw Flint, Mi 48505",
    "phone": "(810) 787-5923",
    "url": null,
    "ebt_accepted": 1,
    "dufb_offered": 0,
    "wic_accepted": 1
  },
  {
    "id": "market_229",
    "name": "Admiral Petroleum Co #124",
    "lat": 43.0329972,
    "lng": -83.6375655,
    "type": "FoodRetailer",
    "hours": "24/7",
    "address": "3802 Davison Rd Flint, Mi 48506",
    "phone": "(810) 742-5532",
    "url": null,
    "ebt_accepted": 1,
    "dufb_offered": 0,
    "wic_accepted": 1
  },
  {
    "id": "market_231",
    "name": "Admiral Petroleum Co #123",
    "lat": 42.9874439,
    "lng": -83.6928016,
    "type": "FoodRetailer",
    "hours": "24/7",
    "address": "3913 Fenton Rd Flint, Mi 48507",
    "phone": "(810) 234-5782",
    "url": null,
    "ebt_accepted": 1,
    "dufb_offered": 0,
    "wic_accepted": 1
  },
  {
    "id": "market_235",
    "name": "Admiral Petroleum #105",
    "lat": 43.0393775,
    "lng": -83.6558098,
    "type": "FoodRetailer",
    "hours": "Mon - Sun, 5am - 3am (closed 3am-5am)",
    "address": "2617 N Dort Flint, Mi 48506",
    "phone": "(810) 239-6122",
    "url": null,
    "ebt_accepted": 1,
    "dufb_offered": 0,
    "wic_accepted": 1
  },
  {
    "id": "market_239",
    "name": "Dort Fill Up Inc ",
    "lat": 43.0516793,
    "lng": -83.6637659,
    "type": "FoodRetailer",
    "hours": "24/7",
    "address": "4030 N Dort Hwy Flint, Mi 48506",
    "phone": "(810) 736-4655",
    "url": null,
    "ebt_accepted": 1,
    "dufb_offered": 0,
    "wic_accepted": 1
  },
  {
    "id": "market_1079",
    "name": "Sweet D'S Confections",
    "lat": 42.8147842,
    "lng": -83.7834122,
    "type": "FoodRetailer",
    "hours": "nan",
    "address": "116 W Broad St Linden, Mi 48451",
    "phone": null,
    "url": null,
    "ebt_accepted": 1,
    "dufb_offered": 0,
    "wic_accepted": 1
  },
  {
    "id": "market_245",
    "name": "One Stop Food Stores #15",
    "lat": 42.9873757,
    "lng": -83.69327919999999,
    "type": "FoodRetailer",
    "hours": "24/7",
    "address": "3910 Fenton Rd Flint, Mi 48507",
    "phone": "810-239-9071 ",
    "url": null,
    "ebt_accepted": 1,
    "dufb_offered": 0,
    "wic_accepted": 1
  },
  {
    "id": "market_247",
    "name": "Riverside Tabernacle",
    "lat": 43.0192094,
    "lng": -83.6838463,
    "type": "FoodRetailer",
    "hours": "Tuesday Mornings",
    "address": "429 N B Chavez Dr Flint, Mi 48503",
    "phone": "810-234-6246 ",
    "url": null,
    "ebt_accepted": 1,
    "dufb_offered": 0,
    "wic_accepted": 1
  },
  {
    "id": "market_251",
    "name": "Seoul Oriental Market",
    "lat": 43.0034219,
    "lng": -83.721712,
    "type": "FoodRetailer",
    "hours": "Mon - Sat, 9am - 9pm; Sun, 1pm - 6pm",
    "address": "2608 Corunna Rd Flint, Mi 48503",
    "phone": " (810) 767-7054",
    "url": null,
    "ebt_accepted": 1,
    "dufb_offered": 0,
    "wic_accepted": 1
  },
  {
    "id": "market_255",
    "name": "Dollar General Store #8120",
    "lat": 42.9889088,
    "lng": -83.6935282,
    "type": "FoodRetailer",
    "hours": "Mon - Sun , 8am - 9pm",
    "address": "3708 Fenton Rd Flint, Mi 48507",
    "phone": "(810) 760-9739",
    "url": null,
    "ebt_accepted": 1,
    "dufb_offered": 0,
    "wic_accepted": 1
  },
  {
    "id": "market_257",
    "name": "Family Dollar Stores Of Mi Inc #2779",
    "lat": 43.0593491,
    "lng": -83.73622569999999,
    "type": "FoodRetailer",
    "hours": "Monday - Sunday : 08:00 AM-10:00 PM",
    "address": "2627 W Pierson Rd Flint, Mi 48504",
    "phone": "8107875984",
    "url": null,
    "ebt_accepted": 1,
    "dufb_offered": 0,
    "wic_accepted": 1
  },
  {
    "id": "market_259",
    "name": "Dollar General Store #13580",
    "lat": 43.06157,
    "lng": -83.70355649999999,
    "type": "FoodRetailer",
    "hours": "Mon - Sun , 8am - 9pm",
    "address": "115 E Pierson Rd Flint, Mi 48505",
    "phone": "(810) 785-4635",
    "url": null,
    "ebt_accepted": 1,
    "dufb_offered": 0,
    "wic_accepted": 1
  },
  {
    "id": "market_263",
    "name": "Healthy Dollar",
    "lat": 43.0154973,
    "lng": -83.6919518,
    "type": "FoodRetailer",
    "hours": "May vary, generally Mon - Sat 10:30 - 6pm. Call to confirm",
    "address": "132 W 1St St Flint, Mi 48502",
    "phone": "810 - 341- 1227",
    "url": null,
    "ebt_accepted": 1,
    "dufb_offered": 0,
    "wic_accepted": 1
  },
  {
    "id": "market_265",
    "name": "Super Dollar Town Plus",
    "lat": 43.0548213,
    "lng": -83.7148076,
    "type": "FoodRetailer",
    "hours": "Mon - Sat, 10am - 8pm; Sun, 11am -6pm",
    "address": "4401 Dupont St Flint, Mi 48505",
    "phone": "(810) 787-3301",
    "url": null,
    "ebt_accepted": 1,
    "dufb_offered": 0,
    "wic_accepted": 1
  },
  {
    "id": "market_269",
    "name": "Family Dollar Store #7389",
    "lat": 43.02402499999999,
    "lng": -83.6917562,
    "type": "FoodRetailer",
    "hours": "Monday - Sunday : 08:00 AM-10:00 PM",
    "address": "877 E 5Th Ave Flint, Mi 48503",
    "phone": "8102383832",
    "url": null,
    "ebt_accepted": 1,
    "dufb_offered": 0,
    "wic_accepted": 1
  },
  {
    "id": "market_271",
    "name": "Dollar & Dime Inc ",
    "lat": 43.0394526,
    "lng": -83.6944212,
    "type": "FoodRetailer",
    "hours": "Mon-Sun:  9am - 6pm",
    "address": "2513 N Saginaw St Flint, Mi 48505",
    "phone": "(810) 760-9413",
    "url": null,
    "ebt_accepted": 1,
    "dufb_offered": 0,
    "wic_accepted": 1
  },
  {
    "id": "market_275",
    "name": "Dollar Tree Store 03284",
    "lat": 42.9805547,
    "lng": -83.69169079999999,
    "type": "FoodRetailer",
    "hours": "Mon - Sat: 9:00am - 10:00pm | Sun: 10:00am - 9:00pm",
    "address": "4823 Fenton Rd Flint, Mi 48507",
    "phone": "810-234-0998",
    "url": null,
    "ebt_accepted": 1,
    "dufb_offered": 0,
    "wic_accepted": 1
  },
  {
    "id": "market_277",
    "name": "Family Dollar Stores Of Mich #6009",
    "lat": 43.0242955,
    "lng": -83.7322823,
    "type": "FoodRetailer",
    "hours": "Monday - Sun : 8AM-10PM",
    "address": "1275 N Ballenger Hwy Flint, Mi 48504",
    "phone": "8104243736",
    "url": null,
    "ebt_accepted": 1,
    "dufb_offered": 0,
    "wic_accepted": 1
  },
  {
    "id": "market_281",
    "name": "Family Dollar Stores Of Mich #7035",
    "lat": 43.0437143,
    "lng": -83.6648469,
    "type": "FoodRetailer",
    "hours": "Monday - Sunday : 08:00 AM-08:00 PM",
    "address": "3102 N Franklin Ave Flint, Mi 48506",
    "phone": "8107670431",
    "url": null,
    "ebt_accepted": 1,
    "dufb_offered": 0,
    "wic_accepted": 1
  },
  {
    "id": "market_283",
    "name": "Dollar General Store #9625",
    "lat": 43.032315,
    "lng": -83.65589039999999,
    "type": "FoodRetailer",
    "hours": "Mon - Sun , 8am - 9pm",
    "address": "1717 N Dort Hwy Flint, Mi 48506",
    "phone": "(810) 424-6404",
    "url": null,
    "ebt_accepted": 1,
    "dufb_offered": 0,
    "wic_accepted": 1
  },
  {
    "id": "market_287",
    "name": "Save A Lot #307 ",
    "lat": 43.0253451,
    "lng": -83.7321163,
    "type": "FoodRetailer",
    "hours": "Mon - Sat, 8am - 9pm; Sun, 9am - 8pm",
    "address": "2918 Flushing Rd Flint, Mi 48504",
    "phone": "(810) 238-4275",
    "url": null,
    "ebt_accepted": 1,
    "dufb_offered": 0,
    "wic_accepted": 1
  },
  {
    "id": "market_289",
    "name": "Save A Lot #301",
    "lat": 42.97773,
    "lng": -83.6928686,
    "type": "FoodRetailer",
    "hours": "Mon - Sun, 8am - 9pm",
    "address": "5125 Fenton Rd Flint, Mi 48507",
    "phone": "(810) 424-9426",
    "url": null,
    "ebt_accepted": 1,
    "dufb_offered": 0,
    "wic_accepted": 1
  },
  {
    "id": "market_293",
    "name": "Prince Party Store, The",
    "lat": 43.046498,
    "lng": -83.7156586,
    "type": "FoodRetailer",
    "hours": "Mon - Th, 8am - 10pm; Fri - Sat, 8am - 11pm; Sun 9am - 10pm",
    "address": "808 W Pasadena Flint, Mi 48504",
    "phone": "(810) 787-4180",
    "url": null,
    "ebt_accepted": 1,
    "dufb_offered": 0,
    "wic_accepted": 1
  },
  {
    "id": "market_295",
    "name": "Ground Floor Llc",
    "lat": 43.0150173,
    "lng": -83.6893977,
    "type": "FoodRetailer",
    "hours": "Mon - Fri 7Am - 4pm",
    "address": "601 S Saginaw Flint, Mi 48502",
    "phone": "(810) 285-9235",
    "url": null,
    "ebt_accepted": 1,
    "dufb_offered": 0,
    "wic_accepted": 1
  },
  {
    "id": "market_297",
    "name": "Ez Stop Food Mart #2",
    "lat": 43.0785121,
    "lng": -83.69363220000001,
    "type": "FoodRetailer",
    "hours": "Mon - Sun, 8am - 11pm",
    "address": "5106 N Saginaw Flint, Mi 48505",
    "phone": "(810) 407-8896",
    "url": null,
    "ebt_accepted": 1,
    "dufb_offered": 0,
    "wic_accepted": 1
  },
  {
    "id": "market_305",
    "name": "Bread Basket",
    "lat": 43.0024065,
    "lng": -83.72738059999999,
    "type": "FoodRetailer",
    "hours": "Mon-Sat, 9am-4pm, closed Sun",
    "address": "3001 Corunna Rd Flint, Mi 48503",
    "phone": "(810) 235-2212",
    "url": null,
    "ebt_accepted": 1,
    "dufb_offered": 0,
    "wic_accepted": 1
  },
  {
    "id": "market_307",
    "name": "Mr Bread Inc",
    "lat": 43.03329009999999,
    "lng": -83.6559968,
    "type": "FoodRetailer",
    "hours": "Mon - Fri: 9am - 5pm",
    "address": "2709 Davison Rd Flint, Mi 48506",
    "phone": "(810) 767-3551",
    "url": null,
    "ebt_accepted": 1,
    "dufb_offered": 0,
    "wic_accepted": 1
  },
  {
    "id": "market_309",
    "name": "Kandy Shack",
    "lat": 43.0115152,
    "lng": -83.68494989999999,
    "type": "FoodRetailer",
    "hours": "nan",
    "address": "1101 S Saginaw St Flint, Mi 48502",
    "phone": null,
    "url": null,
    "ebt_accepted": 1,
    "dufb_offered": 0,
    "wic_accepted": 1
  },
  {
    "id": "market_313",
    "name": "Wal-Mart Supercenter #1928",
    "lat": 42.9996451,
    "lng": -83.7644827,
    "type": "FoodRetailer",
    "hours": "24/7",
    "address": "4313 Corunna Rd Flint, Mi 48532",
    "phone": "(810) 733-5055",
    "url": null,
    "ebt_accepted": 1,
    "dufb_offered": 0,
    "wic_accepted": 1
  },
  {
    "id": "market_319",
    "name": "Kroger Store #425",
    "lat": 42.9545057,
    "lng": -83.69325769999999,
    "type": "FoodRetailer",
    "hours": "Sun - Sat: 6 AM - Midnight",
    "address": "5186 Fenton Rd Flint, Mi 48507",
    "phone": "(810) 232-7137",
    "url": null,
    "ebt_accepted": 1,
    "dufb_offered": 0,
    "wic_accepted": 1
  },
  {
    "id": "market_325",
    "name": "Rite Aid #1587",
    "lat": 43.051924,
    "lng": -83.61662419999999,
    "type": "FoodRetailer",
    "hours": "Mon - Sun, 8am -10pm",
    "address": "4519 Richfield Rd Flint, Mi 48506",
    "phone": "(810) 250-0165",
    "url": null,
    "ebt_accepted": 1,
    "dufb_offered": 0,
    "wic_accepted": 1
  },
  {
    "id": "market_329",
    "name": "Rite Aid Discount Pharmacy #3667",
    "lat": 43.0338857,
    "lng": -83.634771,
    "type": "FoodRetailer",
    "hours": "Mon - Sun, 8am -10pm",
    "address": "4001 Davison Rd Burton, Mi 48509",
    "phone": "(810) 742-0217",
    "url": null,
    "ebt_accepted": 1,
    "dufb_offered": 0,
    "wic_accepted": 1
  },
  {
    "id": "market_337",
    "name": "Mikes Super Sav ",
    "lat": 42.9813582,
    "lng": -83.67395139999999,
    "type": "FoodRetailer",
    "hours": "nan",
    "address": "3283 S Saginaw St Burton, Mi 48529",
    "phone": "(810) 742-9890",
    "url": null,
    "ebt_accepted": 1,
    "dufb_offered": 0,
    "wic_accepted": 1
  },
  {
    "id": "market_343",
    "name": "Kingwater Market ",
    "lat": 43.08987279999999,
    "lng": -83.70689879999999,
    "type": "FoodRetailer",
    "hours": "nan",
    "address": "1341 W Coldwater Rd Flint, Mi 48505",
    "phone": "(810) 789-8820",
    "url": null,
    "ebt_accepted": 1,
    "dufb_offered": 0,
    "wic_accepted": 1
  },
  {
    "id": "market_359",
    "name": "Beecher Beer & Wine ",
    "lat": 43.0625158,
    "lng": -83.6943271,
    "type": "FoodRetailer",
    "hours": "Mon-Sat 8:30am - 2am; Sun, 9am - 2am",
    "address": "5375 N Saginaw St Flint, Mi 48505",
    "phone": "(810) 789-4816",
    "url": null,
    "ebt_accepted": 1,
    "dufb_offered": 0,
    "wic_accepted": 1
  },
  {
    "id": "market_369",
    "name": "Montegos",
    "lat": 42.983884,
    "lng": -83.7722165,
    "type": "FoodRetailer",
    "hours": "24/7 Except Christmas Eve",
    "address": "3021 S Linden Rd Flint, Mi 48507",
    "phone": "(810) 733-3800",
    "url": null,
    "ebt_accepted": 1,
    "dufb_offered": 0,
    "wic_accepted": 1
  },
  {
    "id": "market_373",
    "name": "Zerkas Stop & Shop #2 ",
    "lat": 42.9734579,
    "lng": -83.70772319999999,
    "type": "FoodRetailer",
    "hours": "nan",
    "address": "1395 W Bristol Rd Flint, Mi 48507",
    "phone": "810-760-9411",
    "url": null,
    "ebt_accepted": 1,
    "dufb_offered": 0,
    "wic_accepted": 1
  },
  {
    "id": "market_377",
    "name": "Square One Food Store",
    "lat": 43.090597,
    "lng": -83.7143679,
    "type": "FoodRetailer",
    "hours": "Mon - Sat: 10am - 11pm, Sun: 12pm - 10pm",
    "address": "2008 W Coldwater Rd Flint, Mi 48505",
    "phone": "(810) 785-3639",
    "url": null,
    "ebt_accepted": 1,
    "dufb_offered": 0,
    "wic_accepted": 1
  },
  {
    "id": "market_381",
    "name": "Khirfans Super K",
    "lat": 42.9732856,
    "lng": -83.7133131,
    "type": "FoodRetailer",
    "hours": "24/7",
    "address": "2013 W Bristol Rd Flint, Mi 48507",
    "phone": "(810) 238-1211",
    "url": null,
    "ebt_accepted": 1,
    "dufb_offered": 0,
    "wic_accepted": 1
  },
  {
    "id": "market_387",
    "name": "Center Road Market",
    "lat": 43.003756,
    "lng": -83.6351169,
    "type": "FoodRetailer",
    "hours": "Mon - Fri, 9am - 9pm; Sat-Sun, 9am - 10pm",
    "address": "2014 S Center Rd Burton, Mi 48519",
    "phone": "(810) 742-1555",
    "url": null,
    "ebt_accepted": 1,
    "dufb_offered": 0,
    "wic_accepted": 1
  },
  {
    "id": "market_391",
    "name": "Linden Road Store",
    "lat": 43.0463052,
    "lng": -83.77207899999999,
    "type": "FoodRetailer",
    "hours": "Sun - Th, 9am - 12am; Fri-Sat, 9am - 1am",
    "address": "4516 Pasadena Ave Flint, Mi 48504",
    "phone": "(810) 732-0320",
    "url": null,
    "ebt_accepted": 1,
    "dufb_offered": 0,
    "wic_accepted": 1
  },
  {
    "id": "market_393",
    "name": "J Ps Party Shoppe",
    "lat": 42.96707079999999,
    "lng": -83.66889760000001,
    "type": "FoodRetailer",
    "hours": "Mon - Fri, 9am - 10:00 pm; Sat- Sun: 9am - 11pm",
    "address": "2096 E Judd Rd Burton, Mi 48529",
    "phone": "(810) 744-0798",
    "url": null,
    "ebt_accepted": 1,
    "dufb_offered": 0,
    "wic_accepted": 1
  },
  {
    "id": "market_397",
    "name": "Northend Market ",
    "lat": 43.0832572,
    "lng": -83.693736,
    "type": "FoodRetailer",
    "hours": "nan",
    "address": "5272 N Saginaw Flint, Mi 48505",
    "phone": "(810) 789-0611",
    "url": null,
    "ebt_accepted": 1,
    "dufb_offered": 0,
    "wic_accepted": 1
  },
  {
    "id": "market_399",
    "name": "Country Corner Market ",
    "lat": 43.1042888,
    "lng": -83.7344184,
    "type": "FoodRetailer",
    "hours": "nan",
    "address": "7007 Clio Rd Mt Morris, Mi 48458",
    "phone": "(810) 687-2870",
    "url": null,
    "ebt_accepted": 1,
    "dufb_offered": 0,
    "wic_accepted": 1
  },
  {
    "id": "market_403",
    "name": "General Nutrition Center #0041",
    "lat": 43.0165896,
    "lng": -83.6296871,
    "type": "FoodRetailer",
    "hours": "Mon - Sat, 10am - 8pm; Sun, 12pm - 5pm",
    "address": "4190 E Court St Burton, Mi 48509",
    "phone": "(810) 744-0332",
    "url": null,
    "ebt_accepted": 1,
    "dufb_offered": 0,
    "wic_accepted": 1
  },
  {
    "id": "market_405",
    "name": "General Nutrition Center #754",
    "lat": 42.9755936,
    "lng": -83.7713753,
    "type": "FoodRetailer",
    "hours": "Mon-Sat, 10am-9pm; Sun, 12pm - 6pm",
    "address": "3457 Linden Rd Flint, Mi 48507",
    "phone": "(810) 732-6410",
    "url": null,
    "ebt_accepted": 1,
    "dufb_offered": 0,
    "wic_accepted": 1
  },
  {
    "id": "market_409",
    "name": "Michigan Food Market",
    "lat": 42.9596996,
    "lng": -83.7133546,
    "type": "FoodRetailer",
    "hours": "Mon - Sun 10am - 9pm",
    "address": "4508 Van Slyke Flint, Mi 48507",
    "phone": " (810) 410-4525",
    "url": null,
    "ebt_accepted": 1,
    "dufb_offered": 0,
    "wic_accepted": 1
  },
  {
    "id": "market_411",
    "name": "Great Giant Supermarket",
    "lat": 43.0812666,
    "lng": -83.6935906,
    "type": "FoodRetailer",
    "hours": "Mon - Sat, 8am - 8pm; Sun, 8am - 7pm",
    "address": "5204 N Saginaw Street Flint, Mi 48505",
    "phone": "(810) 787-5201",
    "url": null,
    "ebt_accepted": 1,
    "dufb_offered": 0,
    "wic_accepted": 1
  },
  {
    "id": "market_415",
    "name": "Asf 5 Inc",
    "lat": 43.032781,
    "lng": -83.6349719,
    "type": "FoodRetailer",
    "hours": "24/7",
    "address": "4012 Davison Rd Burton, Mi 48509",
    "phone": "810-422-9818",
    "url": null,
    "ebt_accepted": 1,
    "dufb_offered": 0,
    "wic_accepted": 1
  },
  {
    "id": "market_417",
    "name": "Pierson Service Station Llc ",
    "lat": 43.0609115,
    "lng": -83.7750559,
    "type": "FoodRetailer",
    "hours": "nan",
    "address": "5050 W Pierson Rd Flint, Mi 48504",
    "phone": "(810) 733-2159",
    "url": null,
    "ebt_accepted": 1,
    "dufb_offered": 0,
    "wic_accepted": 1
  },
  {
    "id": "market_421",
    "name": "Marathon - Hasan Fuel Inc ",
    "lat": 43.060162,
    "lng": -83.75925699999999,
    "type": "FoodRetailer",
    "hours": "24/7",
    "address": "4151 W Pierson Rd Flint, Mi 48504",
    "phone": "810-787-1295",
    "url": null,
    "ebt_accepted": 1,
    "dufb_offered": 0,
    "wic_accepted": 1
  },
  {
    "id": "market_423",
    "name": "Marathon - Aziz Station Inc",
    "lat": 43.0610069,
    "lng": -83.7490883,
    "type": "FoodRetailer",
    "hours": "24/7",
    "address": "G 3416 W Pierson Rd Flint, Mi 48504",
    "phone": "810-820-6055",
    "url": null,
    "ebt_accepted": 1,
    "dufb_offered": 0,
    "wic_accepted": 1
  },
  {
    "id": "market_427",
    "name": "Amir Petroleum Llc",
    "lat": 43.0892846,
    "lng": -83.7337627,
    "type": "FoodRetailer",
    "hours": "24/7",
    "address": "5515 Clio Road Flint, Mi 48504",
    "phone": "(810) 785-1785",
    "url": null,
    "ebt_accepted": 1,
    "dufb_offered": 0,
    "wic_accepted": 1
  },
  {
    "id": "market_429",
    "name": "Corunna Road West Express Stop",
    "lat": 43.00233559999999,
    "lng": -83.77701929999999,
    "type": "FoodRetailer",
    "hours": "nan",
    "address": "5120 Corunna Rd Flint, Mi 48532",
    "phone": "(810) 733-0460",
    "url": null,
    "ebt_accepted": 1,
    "dufb_offered": 0,
    "wic_accepted": 1
  },
  {
    "id": "market_433",
    "name": "Pierson Rd Fuel Stop Inc ",
    "lat": 43.0609629,
    "lng": -83.7599123,
    "type": "FoodRetailer",
    "hours": "Mon - th, 5am - 11pm; Fri, 5am - 12am; Sat , 6am - 12am; Sun, 7am - 10pm",
    "address": "4172 W Pierson Rd Flint, Mi 48504",
    "phone": "(810) 785-3589",
    "url": null,
    "ebt_accepted": 1,
    "dufb_offered": 0,
    "wic_accepted": 1
  },
  {
    "id": "market_435",
    "name": "Faris Fuel Stop Inc ",
    "lat": 43.093203,
    "lng": -83.693793,
    "type": "FoodRetailer",
    "hours": "Mon- Sun, 6 AM to 10PM",
    "address": "6114 N Saginaw Mt Morris, Mi 48458",
    "phone": "810-789-8722",
    "url": null,
    "ebt_accepted": 1,
    "dufb_offered": 0,
    "wic_accepted": 1
  },
  {
    "id": "market_439",
    "name": "Admiral Petroleum Co #286",
    "lat": 42.9824091,
    "lng": -83.6537529,
    "type": "FoodRetailer",
    "hours": "24/7",
    "address": "4646 S Dort Hwy Flint, Mi 48507",
    "phone": "(810) 835-4821",
    "url": null,
    "ebt_accepted": 1,
    "dufb_offered": 0,
    "wic_accepted": 1
  },
  {
    "id": "market_441",
    "name": "Bristol Fuel Llc",
    "lat": 42.9740887,
    "lng": -83.7069135,
    "type": "FoodRetailer",
    "hours": "24/7",
    "address": "1374 W Bristol Flint, Mi 48507",
    "phone": "(810) 232-4741",
    "url": null,
    "ebt_accepted": 1,
    "dufb_offered": 0,
    "wic_accepted": 1
  },
  {
    "id": "market_447",
    "name": "Marathon - Atn Oil Inc ",
    "lat": 43.0518776,
    "lng": -83.615262,
    "type": "FoodRetailer",
    "hours": "24/7",
    "address": "5015 Richfield Rd Flint, Mi 48506",
    "phone": "810-250-0144",
    "url": null,
    "ebt_accepted": 1,
    "dufb_offered": 0,
    "wic_accepted": 1
  },
  {
    "id": "market_1089",
    "name": "Sunoco",
    "lat": 43.0159023,
    "lng": -83.59446899999999,
    "type": "FoodRetailer",
    "hours": "nan",
    "address": "1117 S Belsay Rd Burton, Mi 48509",
    "phone": null,
    "url": null,
    "ebt_accepted": 1,
    "dufb_offered": 0,
    "wic_accepted": 1
  },
  {
    "id": "market_457",
    "name": "Meijer Gas Station #29",
    "lat": 42.9933387,
    "lng": -83.6316454,
    "type": "FoodRetailer",
    "hours": "24/7",
    "address": "2333 S. Center Rd Burton, Mi 48519",
    "phone": "(810) 744-4000",
    "url": null,
    "ebt_accepted": 1,
    "dufb_offered": 0,
    "wic_accepted": 1
  },
  {
    "id": "market_461",
    "name": "Speedway  #5524 Good Customer Service",
    "lat": 42.989853,
    "lng": -83.7373454,
    "type": "FoodRetailer",
    "hours": "24/7",
    "address": "3155 Miller Rd Flint, Mi 48507",
    "phone": "(810) 238-5850",
    "url": null,
    "ebt_accepted": 1,
    "dufb_offered": 0,
    "wic_accepted": 1
  },
  {
    "id": "market_463",
    "name": "Speedway #8745",
    "lat": 43.0025661,
    "lng": -83.7719335,
    "type": "FoodRetailer",
    "hours": "24/7",
    "address": "1499 S Linden Road Flint, Mi 48532",
    "phone": "(810) 230-2555",
    "url": null,
    "ebt_accepted": 1,
    "dufb_offered": 0,
    "wic_accepted": 1
  },
  {
    "id": "market_467",
    "name": "Speedway #5518 Good Customer Service",
    "lat": 42.9742272,
    "lng": -83.6834733,
    "type": "FoodRetailer",
    "hours": "24/7",
    "address": "1258 East Bristol Rd Burton, Mi 48529",
    "phone": "(810) 233-3753",
    "url": null,
    "ebt_accepted": 1,
    "dufb_offered": 0,
    "wic_accepted": 1
  },
  {
    "id": "market_469",
    "name": "One Stop Food Store #22 ",
    "lat": 43.0332711,
    "lng": -83.5953968,
    "type": "FoodRetailer",
    "hours": "24/7",
    "address": "6010 Davison Burton, Mi 48509",
    "phone": "810-742-7470 ",
    "url": null,
    "ebt_accepted": 1,
    "dufb_offered": 0,
    "wic_accepted": 1
  },
  {
    "id": "market_473",
    "name": "One Stop Food Stores #21",
    "lat": 42.9442866,
    "lng": -83.7265434,
    "type": "FoodRetailer",
    "hours": "24/7",
    "address": "2374 W Hill Rd Flint, Mi 48507",
    "phone": "810-767-3870",
    "url": null,
    "ebt_accepted": 1,
    "dufb_offered": 0,
    "wic_accepted": 1
  },
  {
    "id": "market_475",
    "name": "Speedway #8749",
    "lat": 42.9732264,
    "lng": -83.7191249,
    "type": "FoodRetailer",
    "hours": "24/7",
    "address": "2169 W Bristol Rd Flint, Mi 48507",
    "phone": "(810) 232-0007",
    "url": null,
    "ebt_accepted": 1,
    "dufb_offered": 0,
    "wic_accepted": 1
  },
  {
    "id": "market_479",
    "name": "Speedway #8753",
    "lat": 42.97406549999999,
    "lng": -83.67535939999999,
    "type": "FoodRetailer",
    "hours": "24/7",
    "address": "1466 E Bristol Rd Burton, Mi 48529",
    "phone": "(810) 742-6031",
    "url": null,
    "ebt_accepted": 1,
    "dufb_offered": 0,
    "wic_accepted": 1
  },
  {
    "id": "market_483",
    "name": "Speedway  #2206 Good Customer Service",
    "lat": 42.9745609,
    "lng": -83.63372059999999,
    "type": "FoodRetailer",
    "hours": "24/7",
    "address": "3514 E Bristol Rd Burton, Mi 48529",
    "phone": "(810) 743-6570",
    "url": null,
    "ebt_accepted": 1,
    "dufb_offered": 0,
    "wic_accepted": 1
  },
  {
    "id": "market_491",
    "name": "Dollar Express ",
    "lat": 42.9750139,
    "lng": -83.68628129999999,
    "type": "FoodRetailer",
    "hours": "Mon - Sat, 9am - 10pm; Sun, 9am - 9pm",
    "address": "1181 E Bristol Rd Burton, Mi 48529",
    "phone": "810-341-5070",
    "url": null,
    "ebt_accepted": 1,
    "dufb_offered": 0,
    "wic_accepted": 1
  },
  {
    "id": "market_497",
    "name": "Dollar General Store #13249",
    "lat": 43.0900129,
    "lng": -83.7145616,
    "type": "FoodRetailer",
    "hours": "Mon - Sun , 8am - 9pm",
    "address": "2015 Coldwater Rd Flint, Mi 48505",
    "phone": "(810) 250-7654",
    "url": null,
    "ebt_accepted": 1,
    "dufb_offered": 0,
    "wic_accepted": 1
  },
  {
    "id": "market_501",
    "name": "Dollar Tree #4122",
    "lat": 42.9446027,
    "lng": -83.7291821,
    "type": "FoodRetailer",
    "hours": "Mon - Sat: 9:00am - 10:00pm | Sun: 10:00am - 8:00pm",
    "address": "2452 W Hill Rd Flint, Mi 48507",
    "phone": "810-762-1054",
    "url": null,
    "ebt_accepted": 1,
    "dufb_offered": 0,
    "wic_accepted": 1
  },
  {
    "id": "market_509",
    "name": "Dollar General Store #8528",
    "lat": 43.0004274,
    "lng": -83.7809709,
    "type": "FoodRetailer",
    "hours": "Mon - Sun , 8am - 10pm",
    "address": "5219 Corunna Rd Flint, Mi 48532",
    "phone": "(810) 732-7801",
    "url": null,
    "ebt_accepted": 1,
    "dufb_offered": 0,
    "wic_accepted": 1
  },
  {
    "id": "market_513",
    "name": "Ollies Bargain Outlet Inc",
    "lat": 42.9776375,
    "lng": -83.7745186,
    "type": "FoodRetailer",
    "hours": "Mon - Sat, 9am - 9pm; Sun, 10am - 7pm",
    "address": "5038 Miller Road Flint, Mi 48507",
    "phone": "(810) 820-3105",
    "url": null,
    "ebt_accepted": 1,
    "dufb_offered": 0,
    "wic_accepted": 1
  },
  {
    "id": "market_515",
    "name": "Aldi #81",
    "lat": 43.0031675,
    "lng": -83.7636228,
    "type": "FoodRetailer",
    "hours": "Monday - Friday 9am - 8pm;Saturday 9am - 8pm;Sunday 10am - 8pm",
    "address": "4270 Corunna Rd Flint, Mi 48532",
    "phone": "(No branch phone number)",
    "url": null,
    "ebt_accepted": 1,
    "dufb_offered": 0,
    "wic_accepted": 1
  },
  {
    "id": "market_521",
    "name": "University Mini Mart Llc",
    "lat": 43.0216024,
    "lng": -83.7224073,
    "type": "FoodRetailer",
    "hours": "24/7",
    "address": "2501 Flushing Rd Flint, Mi 48504",
    "phone": " 810-239-6761",
    "url": null,
    "ebt_accepted": 1,
    "dufb_offered": 0,
    "wic_accepted": 1
  },
  {
    "id": "market_527",
    "name": "Snack Depot ",
    "lat": 43.0603079,
    "lng": -83.7522,
    "type": "FoodRetailer",
    "hours": "Mon - Sat, 10am - 6pm; closed holidays",
    "address": "3491 Pierson Flint, Mi 48504",
    "phone": "(810) 789-8780",
    "url": null,
    "ebt_accepted": 1,
    "dufb_offered": 0,
    "wic_accepted": 1
  },
  {
    "id": "market_531",
    "name": "Bimbo Bakeries Usa Inc ",
    "lat": 42.9448744,
    "lng": -83.7053834,
    "type": "FoodRetailer",
    "hours": "Mon - Fri, 8am - 7pm; Sat, 8am - 6pm; Sun, 10am - 5pm",
    "address": "1356 W Hill Rd Flint, Mi 48507",
    "phone": "(810) 239-8070",
    "url": null,
    "ebt_accepted": 1,
    "dufb_offered": 0,
    "wic_accepted": 1
  },
  {
    "id": "market_533",
    "name": "Aldos Italian Bakery",
    "lat": 42.9819307,
    "lng": -83.6744228,
    "type": "FoodRetailer",
    "hours": "Mon-Sat: 9 am - 6 pm",
    "address": "5131 S Saginaw Flint, Mi 48507",
    "phone": "(810) 744-9123",
    "url": null,
    "ebt_accepted": 1,
    "dufb_offered": 0,
    "wic_accepted": 1
  },
  {
    "id": "market_535",
    "name": "Pick & Save Supermarket - Flint",
    "lat": 43.089871,
    "lng": -83.70814600000001,
    "type": "FoodRetailer",
    "hours": "nan",
    "address": "1361 W Coldwater Mt Morris Twp, Mi 48505",
    "phone": "(810) 820-9111",
    "url": null,
    "ebt_accepted": 1,
    "dufb_offered": 0,
    "wic_accepted": 1
  },
  {
    "id": "market_537",
    "name": "Meijer Inc #259",
    "lat": 42.9682383,
    "lng": -83.8270829,
    "type": "FoodRetailer",
    "hours": "nan",
    "address": "4141 Morrish Rd Swartz Creek, Mi 48473",
    "phone": null,
    "url": null,
    "ebt_accepted": 1,
    "dufb_offered": 0,
    "wic_accepted": 1
  },
  {
    "id": "market_541",
    "name": "Vgs Food #1925",
    "lat": 43.1713614,
    "lng": -83.7360174,
    "type": "FoodRetailer",
    "hours": "nan",
    "address": "710 S Mill Clio, Mi 48420",
    "phone": null,
    "url": null,
    "ebt_accepted": 1,
    "dufb_offered": 0,
    "wic_accepted": 1
  },
  {
    "id": "market_543",
    "name": "Vgs Food #1929",
    "lat": 43.1185873,
    "lng": -83.61880560000002,
    "type": "FoodRetailer",
    "hours": "nan",
    "address": "7461 N Genesee Genesee, Mi 48437",
    "phone": null,
    "url": null,
    "ebt_accepted": 1,
    "dufb_offered": 0,
    "wic_accepted": 1
  },
  {
    "id": "market_547",
    "name": "Wal-Mart Store #3726",
    "lat": 42.9410648,
    "lng": -83.64634430000001,
    "type": "FoodRetailer",
    "hours": "nan",
    "address": "6170 S Saginaw Grand Blanc, Mi 48439",
    "phone": null,
    "url": null,
    "ebt_accepted": 1,
    "dufb_offered": 0,
    "wic_accepted": 1
  },
  {
    "id": "market_557",
    "name": "Kroger Store #407",
    "lat": 43.1105195,
    "lng": -83.6932697,
    "type": "FoodRetailer",
    "hours": "nan",
    "address": "7188 N Saginaw Rd Mt Morris, Mi 48458",
    "phone": null,
    "url": null,
    "ebt_accepted": 1,
    "dufb_offered": 0,
    "wic_accepted": 1
  },
  {
    "id": "market_1093",
    "name": "Outdoor Adventures Lake Shore Resort",
    "lat": 43.0736298,
    "lng": -83.5558997,
    "type": "FoodRetailer",
    "hours": "nan",
    "address": "4392 N Irish Rd Davison, Mi 48423",
    "phone": null,
    "url": null,
    "ebt_accepted": 1,
    "dufb_offered": 0,
    "wic_accepted": 1
  },
  {
    "id": "market_571",
    "name": "Sam'S Club #4944",
    "lat": 42.8868803,
    "lng": -83.5997191,
    "type": "FoodRetailer",
    "hours": "nan",
    "address": "6160 S Saginaw Rd Grand Blanc, Mi 48439",
    "phone": null,
    "url": null,
    "ebt_accepted": 1,
    "dufb_offered": 0,
    "wic_accepted": 1
  },
  {
    "id": "market_577",
    "name": "Walgreens #10953",
    "lat": 43.0197011,
    "lng": -83.51693519999999,
    "type": "FoodRetailer",
    "hours": "nan",
    "address": "901 S State St Davison, Mi 48423",
    "phone": null,
    "url": null,
    "ebt_accepted": 1,
    "dufb_offered": 0,
    "wic_accepted": 1
  },
  {
    "id": "market_589",
    "name": "Rite Aid #7736",
    "lat": 43.1198612,
    "lng": -83.69497779999999,
    "type": "FoodRetailer",
    "hours": "nan",
    "address": "11801 N Saginaw St Mount Morris, Mi 48458",
    "phone": null,
    "url": null,
    "ebt_accepted": 1,
    "dufb_offered": 0,
    "wic_accepted": 1
  },
  {
    "id": "market_591",
    "name": "Rite Aid #7738",
    "lat": 43.0341872,
    "lng": -83.5188048,
    "type": "FoodRetailer",
    "hours": "nan",
    "address": "521 N. State Rd. Davison, Mi 48423",
    "phone": null,
    "url": null,
    "ebt_accepted": 1,
    "dufb_offered": 0,
    "wic_accepted": 1
  },
  {
    "id": "market_599",
    "name": "Rite Aid Pharmacy #4447",
    "lat": 43.121047,
    "lng": -83.6186299,
    "type": "FoodRetailer",
    "hours": "nan",
    "address": "4515 E Mt Morris Rd Mount Morris, Mi 48437",
    "phone": null,
    "url": null,
    "ebt_accepted": 1,
    "dufb_offered": 0,
    "wic_accepted": 1
  },
  {
    "id": "market_601",
    "name": "Rite Aid Pharmacy #4439",
    "lat": 43.0207246,
    "lng": -83.51686939999999,
    "type": "FoodRetailer",
    "hours": "nan",
    "address": "841 S State Rd Davison, Mi 48423",
    "phone": null,
    "url": null,
    "ebt_accepted": 1,
    "dufb_offered": 0,
    "wic_accepted": 1
  },
  {
    "id": "market_607",
    "name": "Rite Aid Disc Pharmacy  #3452",
    "lat": 42.8134066,
    "lng": -83.7894486,
    "type": "FoodRetailer",
    "hours": "nan",
    "address": "602 W Broad Linden, Mi 48451",
    "phone": null,
    "url": null,
    "ebt_accepted": 1,
    "dufb_offered": 0,
    "wic_accepted": 1
  },
  {
    "id": "market_617",
    "name": "General Nutrition  #8640",
    "lat": 43.022088,
    "lng": -83.5164788,
    "type": "FoodRetailer",
    "hours": "nan",
    "address": "803 South State Rd Davison, Mi 48423",
    "phone": null,
    "url": null,
    "ebt_accepted": 1,
    "dufb_offered": 0,
    "wic_accepted": 1
  },
  {
    "id": "market_621",
    "name": "General Nutrition Center #5862",
    "lat": 42.7947455,
    "lng": -83.7363482,
    "type": "FoodRetailer",
    "hours": "nan",
    "address": "17205 Silver Parkway Fenton, Mi 48430",
    "phone": null,
    "url": null,
    "ebt_accepted": 1,
    "dufb_offered": 0,
    "wic_accepted": 1
  },
  {
    "id": "market_625",
    "name": "Grand Food Castle",
    "lat": 42.9167159,
    "lng": -83.6502878,
    "type": "FoodRetailer",
    "hours": "nan",
    "address": "3035 E Grand Blanc Rd Grand Blanc, Mi 48439",
    "phone": null,
    "url": null,
    "ebt_accepted": 1,
    "dufb_offered": 0,
    "wic_accepted": 1
  },
  {
    "id": "market_627",
    "name": "Nehrings Market Inc",
    "lat": 42.9760438,
    "lng": -83.59317930000002,
    "type": "FoodRetailer",
    "hours": "nan",
    "address": "3517 S Belsay Rd Burton, Mi 48519",
    "phone": null,
    "url": null,
    "ebt_accepted": 1,
    "dufb_offered": 0,
    "wic_accepted": 1
  },
  {
    "id": "market_631",
    "name": "Saginaw Fuel South Llc",
    "lat": 42.9239052,
    "lng": -83.6252195,
    "type": "FoodRetailer",
    "hours": "nan",
    "address": "11911 S Saginaw Grand Blanc, Mi 48439",
    "phone": null,
    "url": null,
    "ebt_accepted": 1,
    "dufb_offered": 0,
    "wic_accepted": 1
  },
  {
    "id": "market_637",
    "name": "Saginaw Fuel Mid Llc",
    "lat": 42.9243061,
    "lng": -83.6258153,
    "type": "FoodRetailer",
    "hours": "nan",
    "address": "11843 S Saginaw Grand Blanc, Mi 48439",
    "phone": null,
    "url": null,
    "ebt_accepted": 1,
    "dufb_offered": 0,
    "wic_accepted": 1
  },
  {
    "id": "market_641",
    "name": "Meijer Gas Station #244",
    "lat": 43.0259968,
    "lng": -83.55611859999999,
    "type": "FoodRetailer",
    "hours": "nan",
    "address": "1235 Irish Rd Davison, Mi 48423",
    "phone": null,
    "url": null,
    "ebt_accepted": 1,
    "dufb_offered": 0,
    "wic_accepted": 1
  },
  {
    "id": "market_647",
    "name": "One Stop Food Store #31",
    "lat": 43.03472070000001,
    "lng": -83.5559414,
    "type": "FoodRetailer",
    "hours": "nan",
    "address": "8005 Davison Rd Davison, Mi 48423",
    "phone": null,
    "url": null,
    "ebt_accepted": 1,
    "dufb_offered": 0,
    "wic_accepted": 1
  },
  {
    "id": "market_651",
    "name": "Mr Js Petroleum/Clark",
    "lat": 42.8000862,
    "lng": -83.7046941,
    "type": "FoodRetailer",
    "hours": "nan",
    "address": "436 N Leroy Fenton, Mi 48430",
    "phone": null,
    "url": null,
    "ebt_accepted": 1,
    "dufb_offered": 0,
    "wic_accepted": 1
  },
  {
    "id": "market_655",
    "name": "Speedway #8763",
    "lat": 42.9444814,
    "lng": -83.67592929999999,
    "type": "FoodRetailer",
    "hours": "nan",
    "address": "1435 E Hill Rd Grand Blanc, Mi 48439",
    "phone": null,
    "url": null,
    "ebt_accepted": 1,
    "dufb_offered": 0,
    "wic_accepted": 1
  },
  {
    "id": "market_657",
    "name": "Speedway #8386",
    "lat": 43.128563,
    "lng": -83.69496099999999,
    "type": "FoodRetailer",
    "hours": "nan",
    "address": "8333 N Saginaw Rd Mt Morris, Mi 48458",
    "phone": null,
    "url": null,
    "ebt_accepted": 1,
    "dufb_offered": 0,
    "wic_accepted": 1
  },
  {
    "id": "market_661",
    "name": "Speedway  #8405",
    "lat": 42.7893705,
    "lng": -83.7362249,
    "type": "FoodRetailer",
    "hours": "nan",
    "address": "3245 Owen Rd Fenton, Mi 48430",
    "phone": null,
    "url": null,
    "ebt_accepted": 1,
    "dufb_offered": 0,
    "wic_accepted": 1
  },
  {
    "id": "market_665",
    "name": "One Stop Food Store #19",
    "lat": 43.1193489,
    "lng": -83.67568969999999,
    "type": "FoodRetailer",
    "hours": "nan",
    "address": "7512 N Dort Hwy Mt Morris, Mi 48458",
    "phone": null,
    "url": null,
    "ebt_accepted": 1,
    "dufb_offered": 0,
    "wic_accepted": 1
  },
  {
    "id": "market_667",
    "name": "Beacon & Bridge Market #7",
    "lat": 43.118075,
    "lng": -83.761409,
    "type": "FoodRetailer",
    "hours": "nan",
    "address": "4181 W Mt Morris Rd Mt Morris, Mi 48458",
    "phone": null,
    "url": null,
    "ebt_accepted": 1,
    "dufb_offered": 0,
    "wic_accepted": 1
  },
  {
    "id": "market_671",
    "name": "Speedway #8403",
    "lat": 43.015136,
    "lng": -83.5170574,
    "type": "FoodRetailer",
    "hours": "nan",
    "address": "1177 S State Rd Davison, Mi 48423",
    "phone": null,
    "url": null,
    "ebt_accepted": 1,
    "dufb_offered": 0,
    "wic_accepted": 1
  },
  {
    "id": "market_675",
    "name": "Speedway #8797",
    "lat": 42.9835885,
    "lng": -83.9282071,
    "type": "FoodRetailer",
    "hours": "nan",
    "address": "3117 Sheridan Blvd Lennon, Mi 48449",
    "phone": null,
    "url": null,
    "ebt_accepted": 1,
    "dufb_offered": 0,
    "wic_accepted": 1
  },
  {
    "id": "market_677",
    "name": "Speedway #2227",
    "lat": 42.944675,
    "lng": -83.6926253,
    "type": "FoodRetailer",
    "hours": "nan",
    "address": "5550 Fenton Rd Flint, Mi 48507",
    "phone": null,
    "url": null,
    "ebt_accepted": 1,
    "dufb_offered": 0,
    "wic_accepted": 1
  },
  {
    "id": "market_681",
    "name": "Beacon & Bridge Market #4",
    "lat": 42.8624216,
    "lng": -83.7297507,
    "type": "FoodRetailer",
    "hours": "nan",
    "address": "3011 Thompson Rd Fenton, Mi 48430",
    "phone": null,
    "url": null,
    "ebt_accepted": 1,
    "dufb_offered": 0,
    "wic_accepted": 1
  },
  {
    "id": "market_685",
    "name": "One Stop Food Store #14",
    "lat": 43.1169463,
    "lng": -83.6940267,
    "type": "FoodRetailer",
    "hours": "nan",
    "address": "11536 N Saginaw Mt Morris, Mi 48458",
    "phone": null,
    "url": null,
    "ebt_accepted": 1,
    "dufb_offered": 0,
    "wic_accepted": 1
  },